[
  {
    "type": "活動中心",
    "name": "虎林生活館",
    "address": "新竹市香山區延平路二段336號",
    "city": "新竹市",
    "dist": "香山區",
    "tel": "03-5307105#302",
    "lat": 24.8083527,
    "lon": 120.9342597
  },
  {
    "type": "活動中心",
    "name": "香山大庄活動中心",
    "address": "新竹市香山區宮口街30號",
    "city": "新竹市",
    "dist": "香山區",
    "tel": "03-5307105#302",
    "lat": 24.7926757,
    "lon": 120.9211973
  },
  {
    "type": "活動中心",
    "name": "海山社區活動中心",
    "address": "新竹市香山區大湖路61號",
    "city": "新竹市",
    "dist": "香山區",
    "tel": "03-5307105#302",
    "lat": 24.7621019,
    "lon": 120.9178187
  },
  {
    "type": "活動中心",
    "name": "新港社區活動中心",
    "address": "新竹縣竹北市新港里4鄰港安一街269號",
    "city": "新竹縣",
    "dist": "竹北市",
    "tel": "09-33150734",
    "lat": 24.850746,
    "lon": 120.9486745
  },
  {
    "type": "活動中心",
    "name": "新麻園社區活動中心",
    "address": "新竹縣竹北市麻園里3鄰長園一街227號",
    "city": "新竹縣",
    "dist": "竹北市",
    "tel": "09-32117289",
    "lat": 24.8469596,
    "lon": 120.9768793
  },
  {
    "type": "活動中心",
    "name": "中興社區活動中心",
    "address": "新竹縣竹北市中興里7鄰嘉豐南路1段11號",
    "city": "新竹縣",
    "dist": "竹北市",
    "tel": "09-37997691",
    "lat": 24.81118,
    "lon": 121.0340375
  },
  {
    "type": "活動中心",
    "name": "東海社區活動中心",
    "address": "新竹縣竹北市東海里12鄰東興路一段849號2樓",
    "city": "新竹縣",
    "dist": "竹北市",
    "tel": "09-36089791",
    "lat": 24.8051784,
    "lon": 121.049898
  },
  {
    "type": "活動中心",
    "name": "隘口社區活動中心",
    "address": "新竹縣竹北市隘口里2鄰隘口七街19號1樓",
    "city": "新竹縣",
    "dist": "竹北市",
    "tel": "09-19968379",
    "lat": 24.8018505,
    "lon": 121.03983
  },
  {
    "type": "活動中心",
    "name": "鹿場社區活動中心",
    "address": "新竹縣竹北市鹿場里1鄰福興東路一段365號",
    "city": "新竹縣",
    "dist": "竹北市",
    "tel": "09-11242426",
    "lat": 24.8176612,
    "lon": 121.0259064
  },
  {
    "type": "活動中心",
    "name": "新社社區活動中心",
    "address": "新竹縣竹北市新國里15鄰中正西路247號4樓",
    "city": "新竹縣",
    "dist": "竹北市",
    "tel": "09-11333557",
    "lat": 24.8423185,
    "lon": 120.9973971
  },
  {
    "type": "活動中心",
    "name": "新崙社區活動中心",
    "address": "新竹縣竹北市新崙里28鄰光明十一路108號",
    "city": "新竹縣",
    "dist": "竹北市",
    "tel": "09-32936550",
    "lat": 24.8312751,
    "lon": 120.9983598
  },
  {
    "type": "活動中心",
    "name": "竹北社區活動中心",
    "address": "新竹縣竹北市竹北里中山路236號2樓",
    "city": "新竹縣",
    "dist": "竹北市",
    "tel": "09-36251918",
    "lat": 24.8371966,
    "lon": 121.017758
  },
  {
    "type": "活動中心",
    "name": "竹仁社區活動中心",
    "address": "新竹縣竹北市竹仁里文山街69號3樓",
    "city": "新竹縣",
    "dist": "竹北市",
    "tel": "09-35005185",
    "lat": 24.8373931,
    "lon": 121.0139836
  },
  {
    "type": "活動中心",
    "name": "新國社區活動中心",
    "address": "新竹縣竹北市華興一街160號2樓",
    "city": "新竹縣",
    "dist": "竹北市",
    "tel": "09-32168599",
    "lat": 24.840892,
    "lon": 120.999075
  },
  {
    "type": "活動中心",
    "name": "聯興社區活動中心",
    "address": "新竹縣竹北市聯興里14鄰新興路175號2樓",
    "city": "新竹縣",
    "dist": "竹北市",
    "tel": "09-10052069",
    "lat": 24.8463946,
    "lon": 120.988197
  },
  {
    "type": "活動中心",
    "name": "大義社區活動中心",
    "address": "新竹縣竹北市大義里鳳岡路三段29巷9號",
    "city": "新竹縣",
    "dist": "竹北市",
    "tel": "09-32115583",
    "lat": 24.8629599,
    "lon": 120.9676023
  },
  {
    "type": "活動中心",
    "name": "興安社區活動中心",
    "address": "新竹縣竹北市仁義路129號2樓",
    "city": "新竹縣",
    "dist": "竹北市",
    "tel": "09-32117710",
    "lat": 24.8344747,
    "lon": 121.0144681
  },
  {
    "type": "活動中心",
    "name": "文化社區活動中心",
    "address": "新竹縣竹北市仁義路129號2樓",
    "city": "新竹縣",
    "dist": "竹北市",
    "tel": "09-32690381",
    "lat": 24.8344747,
    "lon": 121.0144681
  },
  {
    "type": "活動中心",
    "name": "東正社區活動中心",
    "address": "新竹縣竹東鎮東寧里4鄰中豐路一段90號",
    "city": "新竹縣",
    "dist": "竹東鎮",
    "tel": "(03)5944866",
    "lat": 24.7233733,
    "lon": 121.0984494
  },
  {
    "type": "活動中心",
    "name": "二重社區活動中心",
    "address": "新竹縣竹東鎮二重里1鄰中興路三段73巷23號",
    "city": "新竹縣",
    "dist": "竹東鎮",
    "tel": "(03)5821931",
    "lat": 24.765595,
    "lon": 121.056809
  },
  {
    "type": "活動中心",
    "name": "大同社區活動中心",
    "address": "新竹縣竹東鎮榮樂里大同路109巷5號",
    "city": "新竹縣",
    "dist": "竹東鎮",
    "tel": "(03)5962628",
    "lat": 24.7395889,
    "lon": 121.0895972
  },
  {
    "type": "活動中心",
    "name": "大鄉社區活動中心",
    "address": "新竹縣竹東鎮大鄉里中豐路三段58號",
    "city": "新竹縣",
    "dist": "竹東鎮",
    "tel": "(03)5952252",
    "lat": 24.7268741,
    "lon": 121.0849884
  },
  {
    "type": "活動中心",
    "name": "竹中社區活動中心",
    "address": "新竹縣竹東鎮頭重里頭重埔竹中路36之1號",
    "city": "新竹縣",
    "dist": "竹東鎮",
    "tel": "(03)5825153",
    "lat": 24.7807069,
    "lon": 121.0284818
  },
  {
    "type": "活動中心",
    "name": "中山社區活動中心",
    "address": "新竹縣竹東鎮雞林里14鄰大同路257號",
    "city": "新竹縣",
    "dist": "竹東鎮",
    "tel": "09-10074363",
    "lat": 24.7369705,
    "lon": 121.0940961
  },
  {
    "type": "活動中心",
    "name": "東孝社區活動中心",
    "address": "新竹縣竹東鎮竹東里康寧路236號",
    "city": "新竹縣",
    "dist": "竹東鎮",
    "tel": "(03)5952680",
    "lat": 24.7392978,
    "lon": 121.0854735
  },
  {
    "type": "活動中心",
    "name": "頭重社區活動中心",
    "address": "新竹縣竹東鎮頭重里24鄰富榮街25號",
    "city": "新竹縣",
    "dist": "竹東鎮",
    "tel": "(03)5825153",
    "lat": 24.7791678,
    "lon": 121.0341366
  },
  {
    "type": "活動中心",
    "name": "新埔社區活動中心",
    "address": "新竹縣新埔鎮新埔里10鄰中正路311巷19號",
    "city": "新竹縣",
    "dist": "新埔鎮",
    "tel": "(03)5882454",
    "lat": 24.8272002,
    "lon": 121.0780048
  },
  {
    "type": "活動中心",
    "name": "新生社區活動中心",
    "address": "新竹縣新埔鎮新生里中正路435號",
    "city": "新竹縣",
    "dist": "新埔鎮",
    "tel": "(03)5881124",
    "lat": 24.8279643,
    "lon": 121.075349
  },
  {
    "type": "活動中心",
    "name": "新民社區活動中心",
    "address": "新竹縣新埔鎮新民里中正路712巷16號",
    "city": "新竹縣",
    "dist": "新埔鎮",
    "tel": "(03)5881777",
    "lat": 24.8277161,
    "lon": 121.072819
  },
  {
    "type": "活動中心",
    "name": "田新社區活動中心",
    "address": "新竹縣新埔鎮義民路一段7鄰107號",
    "city": "新竹縣",
    "dist": "新埔鎮",
    "tel": "09-32287610",
    "lat": 24.8279599,
    "lon": 121.0695565
  },
  {
    "type": "活動中心",
    "name": "五埔社區活動中心",
    "address": "新竹縣新埔鎮五埔里15鄰寶鎮71號",
    "city": "新竹縣",
    "dist": "新埔鎮",
    "tel": "(03)5896317",
    "lat": 24.8265035,
    "lon": 121.0918548
  },
  {
    "type": "活動中心",
    "name": "巨埔社區活動中心",
    "address": "新竹縣新埔鎮巨埔里8鄰載熙路121巷83號",
    "city": "新竹縣",
    "dist": "新埔鎮",
    "tel": "(03)5899056",
    "lat": 24.840726,
    "lon": 121.121208
  },
  {
    "type": "活動中心",
    "name": "旱坑社區活動中心",
    "address": "新竹縣新埔鎮旱坑里7鄰民生街149巷12弄2號",
    "city": "新竹縣",
    "dist": "新埔鎮",
    "tel": "(03)5892352",
    "lat": 24.8315844,
    "lon": 121.0705248
  },
  {
    "type": "活動中心",
    "name": "南平社區活動中心",
    "address": "新竹縣新埔鎮南平里5鄰南平路558號",
    "city": "新竹縣",
    "dist": "新埔鎮",
    "tel": "(03)5895657",
    "lat": 24.8427759,
    "lon": 121.0668179
  },
  {
    "type": "活動中心",
    "name": "北平社區活動中心",
    "address": "新竹縣新埔鎮北平里9鄰大平窩92號",
    "city": "新竹縣",
    "dist": "新埔鎮",
    "tel": "(03)5886581",
    "lat": 24.847143,
    "lon": 121.08512
  },
  {
    "type": "活動中心",
    "name": "上?社區活動中心",
    "address": "新竹縣新埔鎮上寮里義民路二段200號",
    "city": "新竹縣",
    "dist": "新埔鎮",
    "tel": "(03)5885888",
    "lat": 24.8356703,
    "lon": 121.0549267
  },
  {
    "type": "活動中心",
    "name": "文山社區活動中心",
    "address": "新竹縣新埔鎮文山里11鄰文山路亞東段1020號",
    "city": "新竹縣",
    "dist": "新埔鎮",
    "tel": "(03)5889630",
    "lat": 24.827347,
    "lon": 121.047823
  },
  {
    "type": "活動中心",
    "name": "寶石社區活動中心",
    "address": "新竹縣寶石里文德路二段589巷5弄8號",
    "city": "新竹縣",
    "dist": "新埔鎮",
    "tel": "09-37996950",
    "lat": 24.8160138,
    "lon": 121.0773975
  },
  {
    "type": "活動中心",
    "name": "內立社區活動中心",
    "address": "新竹縣新埔鎮內立里關埔路雲東段499巷7號",
    "city": "新竹縣",
    "dist": "新埔鎮",
    "tel": "(03)5884349",
    "lat": 24.8134892,
    "lon": 121.0967603
  },
  {
    "type": "活動中心",
    "name": "照門社區活動中心",
    "address": "新竹縣新埔鎮照門里6鄰九芎湖16號",
    "city": "新竹縣",
    "dist": "新埔鎮",
    "tel": "09-35327636",
    "lat": 24.8567329,
    "lon": 121.1055317
  },
  {
    "type": "活動中心",
    "name": "清水社區活動中心",
    "address": "新竹縣新埔鎮清水里5鄰49號",
    "city": "新竹縣",
    "dist": "新埔鎮",
    "tel": "(03)5890325",
    "lat": 24.8669338,
    "lon": 121.136116
  },
  {
    "type": "活動中心",
    "name": "新北社區活動中心",
    "address": "新竹縣新埔鎮新北里6鄰北打鐵坑46號",
    "city": "新竹縣",
    "dist": "新埔鎮",
    "tel": "(03)5899022",
    "lat": 24.845318,
    "lon": 121.145298
  },
  {
    "type": "活動中心",
    "name": "四座社區活動中心",
    "address": "新竹縣新埔鎮四座里2鄰中正路249號",
    "city": "新竹縣",
    "dist": "新埔鎮",
    "tel": "(03)5882063",
    "lat": 24.8277563,
    "lon": 121.0794455
  },
  {
    "type": "活動中心",
    "name": "中興社區活動中心",
    "address": "新竹縣湖口鄉中興村17鄰工業一路85號",
    "city": "新竹縣",
    "dist": "湖口鄉",
    "tel": "(03)5982283",
    "lat": 24.8677488,
    "lon": 121.0278368
  },
  {
    "type": "活動中心",
    "name": "長安社區活動中心",
    "address": "新竹縣湖口鄉長安村7鄰長安路381號",
    "city": "新竹縣",
    "dist": "湖口鄉",
    "tel": "(03)5696296",
    "lat": 24.887588,
    "lon": 121.090423
  },
  {
    "type": "活動中心",
    "name": "鳳山社區活動中心",
    "address": "新竹縣湖口鄉鳳山村12鄰榮光路120號",
    "city": "新竹縣",
    "dist": "湖口鄉",
    "tel": "(03)5982948",
    "lat": 24.8576494,
    "lon": 121.013706
  },
  {
    "type": "活動中心",
    "name": "鳳凰社區活動中心",
    "address": "新竹縣湖口鄉鳳凰村仁和路90號",
    "city": "新竹縣",
    "dist": "湖口鄉",
    "tel": "(03)5598808",
    "lat": 24.8731085,
    "lon": 121.0141269
  },
  {
    "type": "活動中心",
    "name": "松柏社區活動中心",
    "address": "新竹縣新豐鄉康樂路一段516號",
    "city": "新竹縣",
    "dist": "新豐鄉",
    "tel": "(03)5591116",
    "lat": 24.8753405,
    "lon": 120.9854832
  },
  {
    "type": "活動中心",
    "name": "上坑社區活動中心",
    "address": "新竹縣新豐鄉上坑村坑子口398-1號",
    "city": "新竹縣",
    "dist": "新豐鄉",
    "tel": "(03)5591116",
    "lat": 24.8361326,
    "lon": 121.022371
  },
  {
    "type": "活動中心",
    "name": "新豐社區活動中心",
    "address": "新竹縣新豐鄉新豐村15鄰池府路149號2樓",
    "city": "新竹縣",
    "dist": "新豐鄉",
    "tel": "(03)5591116",
    "lat": 24.9099573,
    "lon": 120.9763477
  },
  {
    "type": "活動中心",
    "name": "坡頭社區活動中心",
    "address": "新竹縣新豐鄉坡頭村5鄰坡子頭91號",
    "city": "新竹縣",
    "dist": "新豐鄉",
    "tel": "(03)5591116",
    "lat": 24.9221343,
    "lon": 120.9791212
  },
  {
    "type": "活動中心",
    "name": "埔和社區活動中心",
    "address": "新竹縣新豐鄉埔和村15鄰397號",
    "city": "新竹縣",
    "dist": "新豐鄉",
    "tel": "(03)5591116",
    "lat": 24.9210228,
    "lon": 120.9820754
  },
  {
    "type": "活動中心",
    "name": "後湖社區活動中心",
    "address": "新竹縣新豐鄉後湖村6鄰108號",
    "city": "新竹縣",
    "dist": "新豐鄉",
    "tel": "(03)5591116",
    "lat": 24.9330863,
    "lon": 121.0092798
  },
  {
    "type": "活動中心",
    "name": "青埔社區活動中心",
    "address": "新竹縣新豐鄉青埔村6鄰80-2號",
    "city": "新竹縣",
    "dist": "新豐鄉",
    "tel": "(03)5591116",
    "lat": 24.9170359,
    "lon": 121.0114709
  },
  {
    "type": "活動中心",
    "name": "福興社區活動中心",
    "address": "新竹縣新豐鄉福興村98號",
    "city": "新竹縣",
    "dist": "新豐鄉",
    "tel": "(03)5591116",
    "lat": 24.9307305,
    "lon": 121.0378972
  },
  {
    "type": "活動中心",
    "name": "瑞興社區活動中心",
    "address": "新竹縣新豐鄉瑞興村4鄰63-1號",
    "city": "新竹縣",
    "dist": "新豐鄉",
    "tel": "(03)5591116",
    "lat": 24.9112083,
    "lon": 121.0061249
  },
  {
    "type": "活動中心",
    "name": "員山社區活動中心",
    "address": "新竹縣新豐鄉忠孝村忠一街216號",
    "city": "新竹縣",
    "dist": "新豐鄉",
    "tel": "(03)5591116",
    "lat": 24.8793046,
    "lon": 120.9978704
  },
  {
    "type": "活動中心",
    "name": "崎頂社區活動中心",
    "address": "新竹縣新豐鄉崎頂村13鄰榮華街127巷10號",
    "city": "新竹縣",
    "dist": "新豐鄉",
    "tel": "(03)5591116",
    "lat": 24.8842908,
    "lon": 120.989672
  },
  {
    "type": "活動中心",
    "name": "華龍社區活動中心",
    "address": "新竹縣芎林鄉華龍村3鄰176-1號",
    "city": "新竹縣",
    "dist": "芎林鄉",
    "tel": "09-37829486",
    "lat": 24.8361326,
    "lon": 121.022371
  },
  {
    "type": "活動中心",
    "name": "五龍社區活動中心",
    "address": "新竹縣芎林鄉五龍村富林路一段138巷91號",
    "city": "新竹縣",
    "dist": "芎林鄉",
    "tel": "(03)5932851",
    "lat": 24.7361939,
    "lon": 121.1198406
  },
  {
    "type": "活動中心",
    "name": "秀湖社區活動中心",
    "address": "新竹縣芎林鄉秀湖村4鄰五和街3號",
    "city": "新竹縣",
    "dist": "芎林鄉",
    "tel": "(03)5931965",
    "lat": 24.733797,
    "lon": 121.1170042
  },
  {
    "type": "活動中心",
    "name": "永興社區活動中心",
    "address": "新竹縣芎林鄉永興村7鄰王爺坑39-3號",
    "city": "新竹縣",
    "dist": "芎林鄉",
    "tel": "09-11216953",
    "lat": 24.7791321,
    "lon": 121.1031953
  },
  {
    "type": "活動中心",
    "name": "石潭社區活動中心",
    "address": "新竹縣芎林鄉石潭村9鄰福昌街300巷47號",
    "city": "新竹縣",
    "dist": "芎林鄉",
    "tel": "09-12536701",
    "lat": 24.748773,
    "lon": 121.099368
  },
  {
    "type": "活動中心",
    "name": "新鳳社區活動中心",
    "address": "新竹縣芎林鄉新鳳村5鄰文衡路200號",
    "city": "新竹縣",
    "dist": "芎林鄉",
    "tel": "09-11214352",
    "lat": 24.7674411,
    "lon": 121.0879637
  },
  {
    "type": "活動中心",
    "name": "中坑社區活動中心",
    "address": "新竹縣芎林鄉中坑村2鄰7之3號",
    "city": "新竹縣",
    "dist": "芎林鄉",
    "tel": "(03)5922731",
    "lat": 24.779289,
    "lon": 121.105208
  },
  {
    "type": "活動中心",
    "name": "水坑社區活動中心",
    "address": "新竹縣芎林鄉水坑村文華街183號",
    "city": "新竹縣",
    "dist": "芎林鄉",
    "tel": "(03)5921333",
    "lat": 24.7819668,
    "lon": 121.0983696
  },
  {
    "type": "活動中心",
    "name": "文林社區活動中心",
    "address": "新竹縣芎林鄉文林村7鄰文山路327號",
    "city": "新竹縣",
    "dist": "芎林鄉",
    "tel": "(03)5921570",
    "lat": 24.7748498,
    "lon": 121.0811877
  },
  {
    "type": "活動中心",
    "name": "芎林社區活動中心",
    "address": "新竹縣芎林鄉芎林村7鄰文富街39號",
    "city": "新竹縣",
    "dist": "芎林鄉",
    "tel": "(03)5921921",
    "lat": 24.7748498,
    "lon": 121.0811877
  },
  {
    "type": "活動中心",
    "name": "上山社區活動中心",
    "address": "新竹縣芎林鄉上山村5鄰綠獅3街6號",
    "city": "新竹縣",
    "dist": "芎林鄉",
    "tel": "(03)5923680",
    "lat": 24.7832881,
    "lon": 121.0744466
  },
  {
    "type": "活動中心",
    "name": "下山社區活動中心",
    "address": "新竹縣芎林鄉下山村9鄰文山路1202巷6號",
    "city": "新竹縣",
    "dist": "芎林鄉",
    "tel": "(03)5921456",
    "lat": 24.7909225,
    "lon": 121.064507
  },
  {
    "type": "活動中心",
    "name": "福興社區活動中心",
    "address": "新竹縣橫山鄉福興村8鄰八十份37號",
    "city": "新竹縣",
    "dist": "橫山鄉",
    "tel": "(03)5811988",
    "lat": 24.7351625,
    "lon": 121.1697548
  },
  {
    "type": "活動中心",
    "name": "新興.大肚村聯合集會所活動中心",
    "address": "新竹縣橫山鄉新興村11鄰新興街127巷2號",
    "city": "新竹縣",
    "dist": "橫山鄉",
    "tel": "(03)5932001#659",
    "lat": 24.7172951,
    "lon": 121.140552
  },
  {
    "type": "活動中心",
    "name": "北埔社區活動中心",
    "address": "新竹縣北埔鄉北埔村中正路16號",
    "city": "新竹縣",
    "dist": "北埔鄉",
    "tel": "09-29041789",
    "lat": 24.7008732,
    "lon": 121.0569015
  },
  {
    "type": "活動中心",
    "name": "南興社區活動中心",
    "address": "新竹縣北埔鄉南興村3鄰公園街16巷7號",
    "city": "新竹縣",
    "dist": "北埔鄉",
    "tel": "(03)5803250",
    "lat": 24.6992449,
    "lon": 121.0582941
  },
  {
    "type": "活動中心",
    "name": "埔尾社區活動中心",
    "address": "新竹縣北埔鄉埔尾村埔心街103號",
    "city": "新竹縣",
    "dist": "北埔鄉",
    "tel": "(03)5804863",
    "lat": 24.7036357,
    "lon": 121.0495878
  },
  {
    "type": "活動中心",
    "name": "大林社區活動中心",
    "address": "新竹縣北埔鄉大林村4鄰47-1號",
    "city": "新竹縣",
    "dist": "北埔鄉",
    "tel": "09-32118986",
    "lat": 24.6842585,
    "lon": 121.0544628
  },
  {
    "type": "活動中心",
    "name": "水?社區活動中心",
    "address": "新竹縣北埔鄉水?村3鄰麻布樹排28號",
    "city": "新竹縣",
    "dist": "北埔鄉",
    "tel": "09-05719229",
    "lat": 24.708808,
    "lon": 121.069299
  },
  {
    "type": "活動中心",
    "name": "南埔社區活動中心",
    "address": "新竹縣北埔鄉南埔村2鄰10-1號",
    "city": "新竹縣",
    "dist": "北埔鄉",
    "tel": "(03)5805025",
    "lat": 24.698375,
    "lon": 121.0460261
  },
  {
    "type": "活動中心",
    "name": "大湖社區活動中心",
    "address": "新竹縣北埔鄉大湖村8鄰10號",
    "city": "新竹縣",
    "dist": "北埔鄉",
    "tel": "(03)5805851",
    "lat": 24.6988099,
    "lon": 121.071096
  },
  {
    "type": "活動中心",
    "name": "南外社區活動中心",
    "address": "新竹縣北埔鄉南坑村9鄰大南坑1號之1",
    "city": "新竹縣",
    "dist": "北埔鄉",
    "tel": "(03)5805355",
    "lat": 24.67068,
    "lon": 121.0601068
  },
  {
    "type": "活動中心",
    "name": "深井社區活動中心",
    "address": "新竹縣寶山鄉深井村7鄰雙林路二段18號",
    "city": "新竹縣",
    "dist": "寶山鄉",
    "tel": "09-32119243",
    "lat": 24.7422411,
    "lon": 120.9598236
  },
  {
    "type": "活動中心",
    "name": "寶斗社區活動中心",
    "address": "新竹縣寶山鄉寶斗村6鄰寶斗路110號",
    "city": "新竹縣",
    "dist": "寶山鄉",
    "tel": "(03)5762198",
    "lat": 24.728809,
    "lon": 120.9532894
  },
  {
    "type": "活動中心",
    "name": "寶山社區發展協會活動中心暨寶山村集會所",
    "address": "新竹縣寶山鄉新湖路二段26號",
    "city": "新竹縣",
    "dist": "寶山鄉",
    "tel": "09-78925136",
    "lat": 24.7329479,
    "lon": 121.0261477
  },
  {
    "type": "活動中心",
    "name": "中盛社區活動中心",
    "address": "新竹縣峨眉鄉中盛村5鄰中興283號",
    "city": "新竹縣",
    "dist": "峨眉鄉",
    "tel": "09-16764060",
    "lat": 24.693178,
    "lon": 121.030758
  },
  {
    "type": "活動中心",
    "name": "峨眉社區活動中心",
    "address": "新竹縣眉鄉峨眉村峨眉街2-1號",
    "city": "新竹縣",
    "dist": "峨眉鄉",
    "tel": "09-16817722",
    "lat": 24.6887959,
    "lon": 121.0214933
  },
  {
    "type": "活動中心",
    "name": "富興社區活動中心",
    "address": "新竹縣峨眉鄉富農新村33號",
    "city": "新竹縣",
    "dist": "峨眉鄉",
    "tel": "09-28068736",
    "lat": 24.6920425,
    "lon": 120.988338
  },
  {
    "type": "活動中心",
    "name": "湖光社區活動中心",
    "address": "新竹縣峨眉鄉湖光村湖農新村32號",
    "city": "新竹縣",
    "dist": "峨眉鄉",
    "tel": "09-33516413",
    "lat": 24.6748187,
    "lon": 120.9933678
  },
  {
    "type": "活動中心",
    "name": "東山社區綜合活動中心",
    "address": "新竹縣關西鎮東山里5鄰湖肚35之2號",
    "city": "新竹縣",
    "dist": "關西鎮",
    "tel": "09-32116912",
    "lat": 24.791741,
    "lon": 121.193332
  },
  {
    "type": "公園",
    "name": "湳雅公園",
    "address": "新竹市",
    "city": "新竹市",
    "dist": "北區",
    "tel": "N/A",
    "lat": 24.8196995,
    "lon": 120.9683456
  },
  {
    "type": "公園",
    "name": "金雅重劃區綠1",
    "address": "新竹市",
    "city": "新竹市",
    "dist": "北區",
    "tel": "N/A",
    "lat": 24.8250138,
    "lon": 120.9653673
  },
  {
    "type": "公園",
    "name": "金雅重劃區綠2",
    "address": "新竹市",
    "city": "新竹市",
    "dist": "北區",
    "tel": "N/A",
    "lat": 24.8250138,
    "lon": 120.9653673
  },
  {
    "type": "公園",
    "name": "金雅重劃區綠3",
    "address": "新竹市",
    "city": "新竹市",
    "dist": "北區",
    "tel": "N/A",
    "lat": 24.8250138,
    "lon": 120.9653673
  },
  {
    "type": "公園",
    "name": "金雅重劃區綠4",
    "address": "新竹市",
    "city": "新竹市",
    "dist": "北區",
    "tel": "N/A",
    "lat": 24.8250138,
    "lon": 120.9653673
  },
  {
    "type": "公園",
    "name": "金雅重劃區滯洪池1",
    "address": "新竹市",
    "city": "新竹市",
    "dist": "北區",
    "tel": "N/A",
    "lat": 24.8250138,
    "lon": 120.9653673
  },
  {
    "type": "公園",
    "name": "金雅重劃區滯洪池2",
    "address": "新竹市",
    "city": "新竹市",
    "dist": "北區",
    "tel": "N/A",
    "lat": 24.8250138,
    "lon": 120.9653673
  },
  {
    "type": "公園",
    "name": "金雅重劃區廣1",
    "address": "新竹市",
    "city": "新竹市",
    "dist": "北區",
    "tel": "N/A",
    "lat": 24.8258577,
    "lon": 120.9664387
  },
  {
    "type": "公園",
    "name": "金雅重劃區廣2",
    "address": "新竹市",
    "city": "新竹市",
    "dist": "北區",
    "tel": "N/A",
    "lat": 24.8254774,
    "lon": 120.9675993
  },
  {
    "type": "公園",
    "name": "金雅重劃區兒1",
    "address": "新竹市",
    "city": "新竹市",
    "dist": "北區",
    "tel": "N/A",
    "lat": 24.8250138,
    "lon": 120.9653673
  },
  {
    "type": "公園",
    "name": "金雅重劃區兒2",
    "address": "新竹市",
    "city": "新竹市",
    "dist": "北區",
    "tel": "N/A",
    "lat": 24.8250138,
    "lon": 120.9653673
  },
  {
    "type": "公園",
    "name": "樹林頭公園",
    "address": "新竹市",
    "city": "新竹市",
    "dist": "北區",
    "tel": "N/A",
    "lat": 24.8219875,
    "lon": 120.959582
  },
  {
    "type": "公園",
    "name": "長和公園",
    "address": "新竹市",
    "city": "新竹市",
    "dist": "北區",
    "tel": "N/A",
    "lat": 24.808258,
    "lon": 120.963959
  },
  {
    "type": "公園",
    "name": "福林公園",
    "address": "新竹市",
    "city": "新竹市",
    "dist": "北區",
    "tel": "N/A",
    "lat": 24.8172865,
    "lon": 120.9610753
  },
  {
    "type": "公園",
    "name": "福林重劃公園",
    "address": "新竹市",
    "city": "新竹市",
    "dist": "北區",
    "tel": "N/A",
    "lat": 24.8172816,
    "lon": 120.963264
  },
  {
    "type": "公園",
    "name": "蟹仔埔公園",
    "address": "新竹市",
    "city": "新竹市",
    "dist": "北區",
    "tel": "N/A",
    "lat": 24.8405112,
    "lon": 120.9278453
  },
  {
    "type": "公園",
    "name": "中光公園",
    "address": "新竹市",
    "city": "新竹市",
    "dist": "北區",
    "tel": "N/A",
    "lat": 24.8406187,
    "lon": 120.9322555
  },
  {
    "type": "公園",
    "name": "康樂公園",
    "address": "新竹市",
    "city": "新竹市",
    "dist": "北區",
    "tel": "N/A",
    "lat": 24.8362055,
    "lon": 120.9408112
  },
  {
    "type": "公園",
    "name": "港北崇和公園",
    "address": "新竹市",
    "city": "新竹市",
    "dist": "北區",
    "tel": "N/A",
    "lat": 24.8302764,
    "lon": 120.9276174
  },
  {
    "type": "公園",
    "name": "中清公園",
    "address": "新竹市",
    "city": "新竹市",
    "dist": "北區",
    "tel": "N/A",
    "lat": 24.8390431,
    "lon": 120.9361005
  },
  {
    "type": "公園",
    "name": "吉羊公園",
    "address": "新竹市",
    "city": "新竹市",
    "dist": "北區",
    "tel": "N/A",
    "lat": 24.824303,
    "lon": 120.954861
  },
  {
    "type": "公園",
    "name": "西雅公園",
    "address": "新竹市",
    "city": "新竹市",
    "dist": "北區",
    "tel": "N/A",
    "lat": 24.7994774,
    "lon": 120.9571348
  },
  {
    "type": "公園",
    "name": "天公壇公園",
    "address": "新竹市",
    "city": "新竹市",
    "dist": "北區",
    "tel": "N/A",
    "lat": 24.799498,
    "lon": 120.957721
  },
  {
    "type": "公園",
    "name": "台溪公園",
    "address": "新竹市",
    "city": "新竹市",
    "dist": "北區",
    "tel": "N/A",
    "lat": 24.796652,
    "lon": 120.959771
  },
  {
    "type": "公園",
    "name": "台溪親子公園",
    "address": "新竹市",
    "city": "新竹市",
    "dist": "北區",
    "tel": "N/A",
    "lat": 24.7979904,
    "lon": 120.9578777
  },
  {
    "type": "公園",
    "name": "北新公園",
    "address": "新竹市",
    "city": "新竹市",
    "dist": "北區",
    "tel": "N/A",
    "lat": 24.803619,
    "lon": 120.9568119
  },
  {
    "type": "公園",
    "name": "凌雲公園",
    "address": "新竹市",
    "city": "新竹市",
    "dist": "北區",
    "tel": "N/A",
    "lat": 24.8032721,
    "lon": 120.9538759
  },
  {
    "type": "公園",
    "name": "興南公園",
    "address": "新竹市",
    "city": "新竹市",
    "dist": "北區",
    "tel": "N/A",
    "lat": 24.8003586,
    "lon": 120.9636318
  },
  {
    "type": "公園",
    "name": "湳雅河濱公園",
    "address": "新竹市",
    "city": "新竹市",
    "dist": "北區",
    "tel": "N/A",
    "lat": 24.825713,
    "lon": 120.9743256
  },
  {
    "type": "公園",
    "name": "民富公園",
    "address": "新竹市",
    "city": "新竹市",
    "dist": "北區",
    "tel": "N/A",
    "lat": 24.8058782,
    "lon": 120.9583706
  },
  {
    "type": "公園",
    "name": "南寮運動公園",
    "address": "新竹市",
    "city": "新竹市",
    "dist": "北區",
    "tel": "N/A",
    "lat": 24.8442689,
    "lon": 120.933417
  },
  {
    "type": "公園",
    "name": "古賢公園",
    "address": "新竹市",
    "city": "新竹市",
    "dist": "北區",
    "tel": "N/A",
    "lat": 24.8303523,
    "lon": 120.9570481
  },
  {
    "type": "公園",
    "name": "客雅體健公園",
    "address": "新竹市",
    "city": "新竹市",
    "dist": "北區",
    "tel": "N/A",
    "lat": 24.8274392,
    "lon": 121.0176628
  },
  {
    "type": "公園",
    "name": "南寮環保公園",
    "address": "新竹市",
    "city": "新竹市",
    "dist": "北區",
    "tel": "N/A",
    "lat": 24.8463584,
    "lon": 120.9268345
  },
  {
    "type": "公園",
    "name": "漁港環保公園",
    "address": "新竹市",
    "city": "新竹市",
    "dist": "北區",
    "tel": "N/A",
    "lat": 24.8463584,
    "lon": 120.9268345
  },
  {
    "type": "公園",
    "name": "南寮貝殼公園",
    "address": "新竹市",
    "city": "新竹市",
    "dist": "北區",
    "tel": "N/A",
    "lat": 24.849885,
    "lon": 120.928693
  },
  {
    "type": "公園",
    "name": "文化綠廊",
    "address": "新竹市",
    "city": "新竹市",
    "dist": "北區",
    "tel": "N/A",
    "lat": 24.8120075,
    "lon": 120.9682356
  },
  {
    "type": "公園",
    "name": "十八尖山森林公園",
    "address": "新竹市",
    "city": "新竹市",
    "dist": "東區",
    "tel": "N/A",
    "lat": 24.7918839,
    "lon": 120.982687
  },
  {
    "type": "公園",
    "name": "新竹公園",
    "address": "新竹市",
    "city": "新竹市",
    "dist": "東區",
    "tel": "N/A",
    "lat": 24.8009119,
    "lon": 120.9773311
  },
  {
    "type": "公園",
    "name": "新竹大砂坑公園",
    "address": "新竹市",
    "city": "新竹市",
    "dist": "東區",
    "tel": "N/A",
    "lat": 24.7821105,
    "lon": 121.0087955
  },
  {
    "type": "公園",
    "name": "三民公園",
    "address": "新竹市",
    "city": "新竹市",
    "dist": "東區",
    "tel": "N/A",
    "lat": 24.8107433,
    "lon": 120.9775372
  },
  {
    "type": "公園",
    "name": "中央公園",
    "address": "新竹市",
    "city": "新竹市",
    "dist": "東區",
    "tel": "N/A",
    "lat": 24.8079845,
    "lon": 120.9708109
  },
  {
    "type": "公園",
    "name": "赤土崎公園",
    "address": "新竹市",
    "city": "新竹市",
    "dist": "東區",
    "tel": "N/A",
    "lat": 24.7992068,
    "lon": 120.9945599
  },
  {
    "type": "公園",
    "name": "南大公園",
    "address": "新竹市",
    "city": "新竹市",
    "dist": "東區",
    "tel": "N/A",
    "lat": 24.7970638,
    "lon": 120.9713385
  },
  {
    "type": "公園",
    "name": "頂竹圍公園",
    "address": "新竹市",
    "city": "新竹市",
    "dist": "東區",
    "tel": "N/A",
    "lat": 24.7975343,
    "lon": 120.9721207
  },
  {
    "type": "公園",
    "name": "興學公園",
    "address": "新竹市",
    "city": "新竹市",
    "dist": "東區",
    "tel": "N/A",
    "lat": 24.7976756,
    "lon": 120.9659113
  },
  {
    "type": "公園",
    "name": "關東公園",
    "address": "新竹市",
    "city": "新竹市",
    "dist": "東區",
    "tel": "N/A",
    "lat": 24.783374,
    "lon": 121.0200537
  },
  {
    "type": "公園",
    "name": "明湖公園",
    "address": "新竹市",
    "city": "新竹市",
    "dist": "東區",
    "tel": "N/A",
    "lat": 24.774399,
    "lon": 120.968304
  },
  {
    "type": "公園",
    "name": "青草湖公園",
    "address": "新竹市",
    "city": "新竹市",
    "dist": "東區",
    "tel": "N/A",
    "lat": 24.7749348,
    "lon": 120.9709015
  },
  {
    "type": "公園",
    "name": "科園親子公園",
    "address": "新竹市",
    "city": "新竹市",
    "dist": "東區",
    "tel": "N/A",
    "lat": 24.7821105,
    "lon": 121.0087955
  },
  {
    "type": "公園",
    "name": "金山六街旁公園",
    "address": "新竹市",
    "city": "新竹市",
    "dist": "東區",
    "tel": "N/A",
    "lat": 24.7770236,
    "lon": 121.0193684
  },
  {
    "type": "公園",
    "name": "金山面公園",
    "address": "新竹市",
    "city": "新竹市",
    "dist": "東區",
    "tel": "N/A",
    "lat": 24.7792172,
    "lon": 121.0225798
  },
  {
    "type": "公園",
    "name": "關新公園",
    "address": "新竹市",
    "city": "新竹市",
    "dist": "東區",
    "tel": "N/A",
    "lat": 24.785949,
    "lon": 121.0194083
  },
  {
    "type": "公園",
    "name": "關埔公園",
    "address": "新竹市",
    "city": "新竹市",
    "dist": "東區",
    "tel": "N/A",
    "lat": 24.7910037,
    "lon": 121.0175277
  },
  {
    "type": "公園",
    "name": "龍山公園",
    "address": "新竹市",
    "city": "新竹市",
    "dist": "東區",
    "tel": "N/A",
    "lat": 24.7916747,
    "lon": 121.0090157
  },
  {
    "type": "公園",
    "name": "馬偕公園",
    "address": "新竹市",
    "city": "新竹市",
    "dist": "東區",
    "tel": "N/A",
    "lat": 24.8011359,
    "lon": 120.9903659
  },
  {
    "type": "公園",
    "name": "關東里公兒四公園",
    "address": "新竹市",
    "city": "新竹市",
    "dist": "東區",
    "tel": "N/A",
    "lat": 24.7823348,
    "lon": 121.0242607
  },
  {
    "type": "公園",
    "name": "綠光公園",
    "address": "新竹市",
    "city": "新竹市",
    "dist": "東區",
    "tel": "N/A",
    "lat": 24.8124402,
    "lon": 120.9849707
  },
  {
    "type": "公園",
    "name": "長春公園",
    "address": "新竹市",
    "city": "新竹市",
    "dist": "東區",
    "tel": "N/A",
    "lat": 24.7869571,
    "lon": 121.0124432
  },
  {
    "type": "公園",
    "name": "綠水里市有公園",
    "address": "新竹市",
    "city": "新竹市",
    "dist": "東區",
    "tel": "N/A",
    "lat": 24.80091,
    "lon": 120.9849557
  },
  {
    "type": "公園",
    "name": "科園里愛民公園",
    "address": "新竹市",
    "city": "新竹市",
    "dist": "東區",
    "tel": "N/A",
    "lat": 24.7868901,
    "lon": 121.009573
  },
  {
    "type": "公園",
    "name": "科園里兒童公園",
    "address": "新竹市",
    "city": "新竹市",
    "dist": "東區",
    "tel": "N/A",
    "lat": 24.7821105,
    "lon": 121.0087955
  },
  {
    "type": "公園",
    "name": "後站公園",
    "address": "新竹市",
    "city": "新竹市",
    "dist": "東區",
    "tel": "N/A",
    "lat": 24.8006419,
    "lon": 120.974888
  },
  {
    "type": "公園",
    "name": "青草湖風景區",
    "address": "新竹市",
    "city": "新竹市",
    "dist": "東區",
    "tel": "N/A",
    "lat": 24.7749348,
    "lon": 120.9709015
  },
  {
    "type": "公園",
    "name": "楓香大道",
    "address": "新竹市",
    "city": "新竹市",
    "dist": "東區",
    "tel": "N/A",
    "lat": 24.7843622,
    "lon": 121.0179564
  },
  {
    "type": "公園",
    "name": "集福公園",
    "address": "新竹市",
    "city": "新竹市",
    "dist": "東區",
    "tel": "N/A",
    "lat": 24.7776089,
    "lon": 121.0219728
  },
  {
    "type": "公園",
    "name": "三民路園道",
    "address": "新竹市",
    "city": "新竹市",
    "dist": "東區",
    "tel": "N/A",
    "lat": 24.8090485,
    "lon": 120.9770975
  },
  {
    "type": "公園",
    "name": "經國路園道",
    "address": "新竹市",
    "city": "新竹市",
    "dist": "東區",
    "tel": "N/A",
    "lat": 24.8140986,
    "lon": 120.974972
  },
  {
    "type": "公園",
    "name": "高峰植物園",
    "address": "新竹市",
    "city": "新竹市",
    "dist": "東區",
    "tel": "N/A",
    "lat": 24.7880544,
    "lon": 120.9824753
  },
  {
    "type": "公園",
    "name": "錦華公園-臨時性公園",
    "address": "新竹市",
    "city": "新竹市",
    "dist": "東區",
    "tel": "N/A",
    "lat": 24.8099786,
    "lon": 120.9727197
  },
  {
    "type": "公園",
    "name": "天坡府媽祖廟旁公園",
    "address": "新竹市",
    "city": "新竹市",
    "dist": "東區",
    "tel": "N/A",
    "lat": 24.7685853,
    "lon": 120.9770515
  },
  {
    "type": "公園",
    "name": "仙宮公園",
    "address": "新竹市",
    "city": "新竹市",
    "dist": "東區",
    "tel": "N/A",
    "lat": 24.7840914,
    "lon": 120.9902632
  },
  {
    "type": "公園",
    "name": "東山濕地生態教學公園",
    "address": "新竹市",
    "city": "新竹市",
    "dist": "東區",
    "tel": "N/A",
    "lat": 24.7954788,
    "lon": 120.9790931
  },
  {
    "type": "公園",
    "name": "北大公園",
    "address": "新竹市",
    "city": "新竹市",
    "dist": "東區",
    "tel": "N/A",
    "lat": 24.809432,
    "lon": 120.968419
  },
  {
    "type": "公園",
    "name": "東大飛行公園",
    "address": "新竹市",
    "city": "新竹市",
    "dist": "東區",
    "tel": "N/A",
    "lat": 24.811935,
    "lon": 120.96941
  },
  {
    "type": "公園",
    "name": "取水口公園",
    "address": "新竹市",
    "city": "新竹市",
    "dist": "東區",
    "tel": "N/A",
    "lat": 24.8061239,
    "lon": 120.9945606
  },
  {
    "type": "公園",
    "name": "頂福公園",
    "address": "新竹市",
    "city": "新竹市",
    "dist": "東區",
    "tel": "N/A",
    "lat": 24.7947333,
    "lon": 120.9518049
  },
  {
    "type": "公園",
    "name": "祥園公園",
    "address": "新竹市",
    "city": "新竹市",
    "dist": "東區",
    "tel": "N/A",
    "lat": 24.798655,
    "lon": 120.943746
  },
  {
    "type": "公園",
    "name": "大庄公園",
    "address": "新竹市",
    "city": "新竹市",
    "dist": "東區",
    "tel": "N/A",
    "lat": 24.793441,
    "lon": 120.9239756
  },
  {
    "type": "公園",
    "name": "鹽水圖書館旁公園-不含圖書館建物",
    "address": "新竹市",
    "city": "新竹市",
    "dist": "東區",
    "tel": "N/A",
    "lat": 24.7504564,
    "lon": 120.9051963
  },
  {
    "type": "公園",
    "name": "羌仔埔綠地-竹香南路空地",
    "address": "新竹市",
    "city": "新竹市",
    "dist": "東區",
    "tel": "N/A",
    "lat": 24.8027032,
    "lon": 120.9356939
  },
  {
    "type": "公園",
    "name": "南十八尖山",
    "address": "新竹市",
    "city": "新竹市",
    "dist": "香山區",
    "tel": "N/A",
    "lat": 24.732977,
    "lon": 120.8922981
  },
  {
    "type": "公園",
    "name": "海天一線",
    "address": "新竹市",
    "city": "新竹市",
    "dist": "北區",
    "tel": "N/A",
    "lat": 24.832619,
    "lon": 120.9150928
  },
  {
    "type": "公園",
    "name": "風情海岸",
    "address": "新竹市",
    "city": "新竹市",
    "dist": "北區",
    "tel": "N/A",
    "lat": 24.8480823,
    "lon": 120.9293641
  },
  {
    "type": "公園",
    "name": "看海公園",
    "address": "新竹市",
    "city": "新竹市",
    "dist": "北區",
    "tel": "N/A",
    "lat": 24.836321,
    "lon": 120.918501
  },
  {
    "type": "公園",
    "name": "南港賞鳥公園",
    "address": "新竹市",
    "city": "新竹市",
    "dist": "香山區",
    "tel": "N/A",
    "lat": 24.7425398,
    "lon": 120.8948136
  },
  {
    "type": "公園",
    "name": "紅樹林公園",
    "address": "新竹市",
    "city": "新竹市",
    "dist": "香山區",
    "tel": "N/A",
    "lat": 24.807915,
    "lon": 120.917795
  },
  {
    "type": "公園",
    "name": "港南運河公園",
    "address": "新竹市",
    "city": "新竹市",
    "dist": "香山區",
    "tel": "N/A",
    "lat": 24.8228474,
    "lon": 120.9103546
  },
  {
    "type": "公園",
    "name": "水資源公園",
    "address": "新竹市",
    "city": "新竹市",
    "dist": "香山區",
    "tel": "N/A",
    "lat": 24.7963358,
    "lon": 120.916266
  },
  {
    "type": "公園",
    "name": "青青草原",
    "address": "新竹市",
    "city": "新竹市",
    "dist": "香山區",
    "tel": "N/A",
    "lat": 24.7726541,
    "lon": 120.9254811
  },
  {
    "type": "公園",
    "name": "親水公園",
    "address": "新竹市",
    "city": "新竹市",
    "dist": "北區",
    "tel": "N/A",
    "lat": 24.8109697,
    "lon": 120.9447063
  },
  {
    "type": "公園",
    "name": "沿海十七公里自行車步道",
    "address": "新竹市",
    "city": "新竹市",
    "dist": "北區",
    "tel": "N/A",
    "lat": 24.8462393,
    "lon": 120.9258941
  },
  {
    "type": "公園",
    "name": "浸水重劃區-浸水社區公園",
    "address": "新竹市",
    "city": "新竹市",
    "dist": "香山區",
    "tel": "N/A",
    "lat": 24.797527,
    "lon": 120.923725
  },
  {
    "type": "公園",
    "name": "港南重劃區-港南小公園-港南三街公園",
    "address": "新竹市",
    "city": "新竹市",
    "dist": "香山區",
    "tel": "N/A",
    "lat": 24.8168326,
    "lon": 120.9274564
  },
  {
    "type": "公園",
    "name": "朝山重劃公園-市場用地",
    "address": "新竹市",
    "city": "新竹市",
    "dist": "香山區",
    "tel": "N/A",
    "lat": 24.806737,
    "lon": 120.9689699
  },
  {
    "type": "公園",
    "name": "香山天后宮前廣場及綠美化",
    "address": "新竹市",
    "city": "新竹市",
    "dist": "香山區",
    "tel": "N/A",
    "lat": 24.7693031,
    "lon": 120.914555
  },
  {
    "type": "公園",
    "name": "虎林街123巷12弄1號富山活動中心",
    "address": "新竹市",
    "city": "新竹市",
    "dist": "香山區",
    "tel": "N/A",
    "lat": 24.8088242,
    "lon": 120.9404498
  },
  {
    "type": "公園",
    "name": "港南重劃區-港南籃球場-港南三街宮廟旁",
    "address": "新竹市",
    "city": "新竹市",
    "dist": "香山區",
    "tel": "N/A",
    "lat": 24.8138065,
    "lon": 120.9227239
  },
  {
    "type": "公園",
    "name": "港南重劃區-港南五街小公園",
    "address": "新竹市",
    "city": "新竹市",
    "dist": "香山區",
    "tel": "N/A",
    "lat": 24.8168326,
    "lon": 120.9274564
  },
  {
    "type": "公園",
    "name": "南港里西濱聯絡道路高架橋下休憩及設施",
    "address": "新竹市",
    "city": "新竹市",
    "dist": "香山區",
    "tel": "N/A",
    "lat": 24.5791598,
    "lon": 120.7205074
  },
  {
    "type": "公園",
    "name": "樹下里公園",
    "address": "新竹市",
    "city": "新竹市",
    "dist": "東區",
    "tel": "N/A",
    "lat": 24.7966688,
    "lon": 120.9394647
  },
  {
    "type": "公園",
    "name": "新竹左岸",
    "address": "新竹市",
    "city": "新竹市",
    "dist": "東區",
    "tel": "N/A",
    "lat": 24.8007781,
    "lon": 120.9694374
  },
  {
    "type": "公園",
    "name": "竹北公1--水圳森林公園",
    "address": "新竹縣",
    "city": "新竹縣",
    "dist": "竹北市",
    "tel": "N/A",
    "lat": 24.810065,
    "lon": 121.0356464
  },
  {
    "type": "公園",
    "name": "竹北市公2公園",
    "address": "新竹縣",
    "city": "新竹縣",
    "dist": "竹北市",
    "tel": "N/A",
    "lat": 24.8094995,
    "lon": 121.030812
  },
  {
    "type": "公園",
    "name": "竹北市公3公園",
    "address": "新竹縣",
    "city": "新竹縣",
    "dist": "竹北市",
    "tel": "N/A",
    "lat": 24.803497,
    "lon": 121.036462
  },
  {
    "type": "公園",
    "name": "竹北市公4公園",
    "address": "新竹縣",
    "city": "新竹縣",
    "dist": "竹北市",
    "tel": "N/A",
    "lat": 24.8094009,
    "lon": 121.0249843
  },
  {
    "type": "公園",
    "name": "竹北市公5公園",
    "address": "新竹縣",
    "city": "新竹縣",
    "dist": "竹北市",
    "tel": "N/A",
    "lat": 24.8202633,
    "lon": 121.0097202
  },
  {
    "type": "公園",
    "name": "竹北市公6公園",
    "address": "新竹縣",
    "city": "新竹縣",
    "dist": "竹北市",
    "tel": "N/A",
    "lat": 24.8281832,
    "lon": 121.0059508
  },
  {
    "type": "公園",
    "name": "竹北市公7公園",
    "address": "新竹縣",
    "city": "新竹縣",
    "dist": "竹北市",
    "tel": "N/A",
    "lat": 24.8058582,
    "lon": 121.0315905
  },
  {
    "type": "公園",
    "name": "竹北市公8公園",
    "address": "新竹縣",
    "city": "新竹縣",
    "dist": "竹北市",
    "tel": "N/A",
    "lat": 24.8415368,
    "lon": 121.0023868
  },
  {
    "type": "公園",
    "name": "竹北市公9公園",
    "address": "新竹縣",
    "city": "新竹縣",
    "dist": "竹北市",
    "tel": "N/A",
    "lat": 24.8295662,
    "lon": 121.0078346
  },
  {
    "type": "公園",
    "name": "竹北市公10公園",
    "address": "新竹縣",
    "city": "新竹縣",
    "dist": "竹北市",
    "tel": "N/A",
    "lat": 24.8281832,
    "lon": 121.0059508
  },
  {
    "type": "公園",
    "name": "竹北市公11公園",
    "address": "新竹縣",
    "city": "新竹縣",
    "dist": "竹北市",
    "tel": "N/A",
    "lat": 24.8251415,
    "lon": 121.0114277
  },
  {
    "type": "公園",
    "name": "竹北市公13公園",
    "address": "新竹縣",
    "city": "新竹縣",
    "dist": "竹北市",
    "tel": "N/A",
    "lat": 24.8249532,
    "lon": 121.0158842
  },
  {
    "type": "公園",
    "name": "竹北市兒1公園",
    "address": "新竹縣",
    "city": "新竹縣",
    "dist": "竹北市",
    "tel": "N/A",
    "lat": 24.8133778,
    "lon": 121.0270636
  },
  {
    "type": "公園",
    "name": "竹北市兒2公園",
    "address": "新竹縣",
    "city": "新竹縣",
    "dist": "竹北市",
    "tel": "N/A",
    "lat": 24.833215,
    "lon": 121.025048
  },
  {
    "type": "公園",
    "name": "竹北市兒3公園",
    "address": "新竹縣",
    "city": "新竹縣",
    "dist": "竹北市",
    "tel": "N/A",
    "lat": 24.8078607,
    "lon": 121.0306474
  },
  {
    "type": "公園",
    "name": "竹北市兒4公園",
    "address": "新竹縣",
    "city": "新竹縣",
    "dist": "竹北市",
    "tel": "N/A",
    "lat": 24.8093789,
    "lon": 121.0249989
  },
  {
    "type": "公園",
    "name": "竹北市兒5公園",
    "address": "新竹縣",
    "city": "新竹縣",
    "dist": "竹北市",
    "tel": "N/A",
    "lat": 24.8240569,
    "lon": 121.0333825
  },
  {
    "type": "公園",
    "name": "竹北市兒6公園",
    "address": "新竹縣",
    "city": "新竹縣",
    "dist": "竹北市",
    "tel": "N/A",
    "lat": 24.8061597,
    "lon": 121.0327781
  },
  {
    "type": "公園",
    "name": "竹北市兒7公園",
    "address": "新竹縣",
    "city": "新竹縣",
    "dist": "竹北市",
    "tel": "N/A",
    "lat": 24.834342,
    "lon": 121.0009003
  },
  {
    "type": "公園",
    "name": "竹北市兒8公園",
    "address": "新竹縣",
    "city": "新竹縣",
    "dist": "竹北市",
    "tel": "N/A",
    "lat": 24.8415368,
    "lon": 121.0023868
  },
  {
    "type": "公園",
    "name": "竹北市兒9公園",
    "address": "新竹縣",
    "city": "新竹縣",
    "dist": "竹北市",
    "tel": "N/A",
    "lat": 24.80451,
    "lon": 121.041039
  },
  {
    "type": "公園",
    "name": "竹北市兒10公園",
    "address": "新竹縣",
    "city": "新竹縣",
    "dist": "竹北市",
    "tel": "N/A",
    "lat": 24.800382,
    "lon": 121.0408589
  },
  {
    "type": "公園",
    "name": "竹北市兒11公園",
    "address": "新竹縣",
    "city": "新竹縣",
    "dist": "竹北市",
    "tel": "N/A",
    "lat": 24.8133778,
    "lon": 121.0270636
  },
  {
    "type": "公園",
    "name": "竹北市兒12公園",
    "address": "新竹縣",
    "city": "新竹縣",
    "dist": "竹北市",
    "tel": "N/A",
    "lat": 24.8274392,
    "lon": 121.0176628
  },
  {
    "type": "公園",
    "name": "竹北市綠1公園",
    "address": "新竹縣",
    "city": "新竹縣",
    "dist": "竹北市",
    "tel": "N/A",
    "lat": 24.8346871,
    "lon": 120.9933678
  },
  {
    "type": "公園",
    "name": "竹北市綠2公園",
    "address": "新竹縣",
    "city": "新竹縣",
    "dist": "竹北市",
    "tel": "N/A",
    "lat": 24.8346871,
    "lon": 120.9933678
  },
  {
    "type": "公園",
    "name": "竹北市綠3公園",
    "address": "新竹縣",
    "city": "新竹縣",
    "dist": "竹北市",
    "tel": "N/A",
    "lat": 24.8327605,
    "lon": 121.0093751
  },
  {
    "type": "公園",
    "name": "竹北市綠4公園",
    "address": "新竹縣",
    "city": "新竹縣",
    "dist": "竹北市",
    "tel": "N/A",
    "lat": 24.8105555,
    "lon": 121.0265681
  },
  {
    "type": "公園",
    "name": "竹北市綠5公園",
    "address": "新竹縣",
    "city": "新竹縣",
    "dist": "竹北市",
    "tel": "N/A",
    "lat": 24.8226962,
    "lon": 121.0155758
  },
  {
    "type": "公園",
    "name": "竹北市綠6公園",
    "address": "新竹縣",
    "city": "新竹縣",
    "dist": "竹北市",
    "tel": "N/A",
    "lat": 24.8094523,
    "lon": 121.0287011
  },
  {
    "type": "公園",
    "name": "竹北市綠7公園",
    "address": "新竹縣",
    "city": "新竹縣",
    "dist": "竹北市",
    "tel": "N/A",
    "lat": 24.8226962,
    "lon": 121.0155758
  },
  {
    "type": "公園",
    "name": "竹北市縣福園公園",
    "address": "新竹縣",
    "city": "新竹縣",
    "dist": "竹北市",
    "tel": "N/A",
    "lat": 24.8246704,
    "lon": 121.0151459
  },
  {
    "type": "公園",
    "name": "竹北市公11公園",
    "address": "新竹縣",
    "city": "新竹縣",
    "dist": "竹北市",
    "tel": "N/A",
    "lat": 24.8251415,
    "lon": 121.0114277
  },
  {
    "type": "公園",
    "name": "竹北市公12公園",
    "address": "新竹縣",
    "city": "新竹縣",
    "dist": "竹北市",
    "tel": "N/A",
    "lat": 24.8247426,
    "lon": 121.0122552
  },
  {
    "type": "公園",
    "name": "竹北市福興公園、公14公園",
    "address": "新竹縣",
    "city": "新竹縣",
    "dist": "竹北市",
    "tel": "N/A",
    "lat": 24.8224876,
    "lon": 121.0103127
  },
  {
    "type": "公園",
    "name": "竹北市公9公園",
    "address": "新竹縣",
    "city": "新竹縣",
    "dist": "竹北市",
    "tel": "N/A",
    "lat": 24.8295662,
    "lon": 121.0078346
  },
  {
    "type": "公園",
    "name": "竹北市公10公園",
    "address": "新竹縣",
    "city": "新竹縣",
    "dist": "竹北市",
    "tel": "N/A",
    "lat": 24.8281832,
    "lon": 121.0059508
  },
  {
    "type": "公園",
    "name": "竹北市北崙公園",
    "address": "新竹縣",
    "city": "新竹縣",
    "dist": "竹北市",
    "tel": "N/A",
    "lat": 24.831728,
    "lon": 121.007236
  },
  {
    "type": "公園",
    "name": "竹北市博愛公園",
    "address": "新竹縣",
    "city": "新竹縣",
    "dist": "竹北市",
    "tel": "N/A",
    "lat": 24.8295662,
    "lon": 121.0078346
  },
  {
    "type": "公園",
    "name": "竹北市公16公園",
    "address": "新竹縣",
    "city": "新竹縣",
    "dist": "竹北市",
    "tel": "N/A",
    "lat": 24.8281832,
    "lon": 121.0059508
  },
  {
    "type": "公園",
    "name": "竹北市親子公園",
    "address": "新竹縣",
    "city": "新竹縣",
    "dist": "竹北市",
    "tel": "N/A",
    "lat": 24.8270777,
    "lon": 121.0047842
  },
  {
    "type": "公園",
    "name": "竹北市深耕公園",
    "address": "新竹縣",
    "city": "新竹縣",
    "dist": "竹北市",
    "tel": "N/A",
    "lat": 24.8266618,
    "lon": 121.0059098
  },
  {
    "type": "公園",
    "name": "竹東鎮公2--客家戲曲公園",
    "address": "新竹縣",
    "city": "新竹縣",
    "dist": "竹東鎮",
    "tel": "N/A",
    "lat": 24.737111,
    "lon": 121.090178
  },
  {
    "type": "公園",
    "name": "竹東鎮公3--森林公園",
    "address": "新竹縣",
    "city": "新竹縣",
    "dist": "竹東鎮",
    "tel": "N/A",
    "lat": 24.774922,
    "lon": 121.0449768
  },
  {
    "type": "公園",
    "name": "北埔鄉秀巒公園",
    "address": "新竹縣",
    "city": "新竹縣",
    "dist": "北埔鄉",
    "tel": "N/A",
    "lat": 24.6996071,
    "lon": 121.0600517
  },
  {
    "type": "公園",
    "name": "北埔鄉三角公園",
    "address": "新竹縣",
    "city": "新竹縣",
    "dist": "北埔鄉",
    "tel": "N/A",
    "lat": 24.6996071,
    "lon": 121.0600517
  },
  {
    "type": "公園",
    "name": "芎林鄉兒1--鳳林公園",
    "address": "新竹縣",
    "city": "新竹縣",
    "dist": "芎林鄉",
    "tel": "N/A",
    "lat": 24.765792,
    "lon": 121.1080244
  },
  {
    "type": "公園",
    "name": "芎林鄉兒2--鄧雨賢公園",
    "address": "新竹縣",
    "city": "新竹縣",
    "dist": "芎林鄉",
    "tel": "N/A",
    "lat": 24.7740278,
    "lon": 121.085513
  },
  {
    "type": "公園",
    "name": "湖口鄉公兒2公園",
    "address": "新竹縣",
    "city": "新竹縣",
    "dist": "湖口鄉",
    "tel": "N/A",
    "lat": 24.8987017,
    "lon": 121.045706
  },
  {
    "type": "公園",
    "name": "湖口鄉公2公園",
    "address": "新竹縣",
    "city": "新竹縣",
    "dist": "湖口鄉",
    "tel": "N/A",
    "lat": 24.8987017,
    "lon": 121.045706
  },
  {
    "type": "公園",
    "name": "湖口鄉公4公園",
    "address": "新竹縣",
    "city": "新竹縣",
    "dist": "湖口鄉",
    "tel": "N/A",
    "lat": 24.8987017,
    "lon": 121.045706
  },
  {
    "type": "公園",
    "name": "湖口鄉公5公園",
    "address": "新竹縣",
    "city": "新竹縣",
    "dist": "湖口鄉",
    "tel": "N/A",
    "lat": 24.8987017,
    "lon": 121.045706
  },
  {
    "type": "公園",
    "name": "湖口鄉公兒5公園",
    "address": "新竹縣",
    "city": "新竹縣",
    "dist": "湖口鄉",
    "tel": "N/A",
    "lat": 24.8987017,
    "lon": 121.045706
  },
  {
    "type": "公園",
    "name": "新豐鄉公1公園",
    "address": "新竹縣",
    "city": "新竹縣",
    "dist": "新豐鄉",
    "tel": "N/A",
    "lat": 24.8785466,
    "lon": 120.9981183
  },
  {
    "type": "公園",
    "name": "新豐鄉公2公園",
    "address": "新竹縣",
    "city": "新竹縣",
    "dist": "新豐鄉",
    "tel": "N/A",
    "lat": 24.9000702,
    "lon": 120.9894863
  },
  {
    "type": "公園",
    "name": "新豐鄉公3公園",
    "address": "新竹縣",
    "city": "新竹縣",
    "dist": "新豐鄉",
    "tel": "N/A",
    "lat": 24.8785466,
    "lon": 120.9981183
  },
  {
    "type": "公園",
    "name": "新豐鄉公4公園",
    "address": "新竹縣",
    "city": "新竹縣",
    "dist": "新豐鄉",
    "tel": "N/A",
    "lat": 24.8785466,
    "lon": 120.9981183
  },
  {
    "type": "公園",
    "name": "新豐鄉坪頂1公園",
    "address": "新竹縣",
    "city": "新竹縣",
    "dist": "新豐鄉",
    "tel": "N/A",
    "lat": 24.8665392,
    "lon": 120.9846142
  },
  {
    "type": "公園",
    "name": "新豐鄉坪頂2公園",
    "address": "新竹縣",
    "city": "新竹縣",
    "dist": "新豐鄉",
    "tel": "N/A",
    "lat": 24.8659742,
    "lon": 120.9842817
  },
  {
    "type": "公園",
    "name": "新豐鄉坪頂3公園",
    "address": "新竹縣",
    "city": "新竹縣",
    "dist": "新豐鄉",
    "tel": "N/A",
    "lat": 24.8657475,
    "lon": 120.9836494
  },
  {
    "type": "公園",
    "name": "關西鎮公1--鳴鳳公園",
    "address": "新竹縣",
    "city": "新竹縣",
    "dist": "關西鎮",
    "tel": "N/A",
    "lat": 24.7883295,
    "lon": 121.1846553
  },
  {
    "type": "公園",
    "name": "關西鎮公兒4--北平公園",
    "address": "新竹縣",
    "city": "新竹縣",
    "dist": "關西鎮",
    "tel": "N/A",
    "lat": 24.8044851,
    "lon": 121.1481284
  },
  {
    "type": "公園",
    "name": "新埔鎮公1--新埔公園",
    "address": "新竹縣",
    "city": "新竹縣",
    "dist": "新埔鎮",
    "tel": "N/A",
    "lat": 24.8295294,
    "lon": 121.0774647
  },
  {
    "type": "公園",
    "name": "公1--鳴鳳公園",
    "address": "新竹縣",
    "city": "新竹縣",
    "dist": "",
    "tel": "N/A",
    "lat": 24.7883295,
    "lon": 121.1846553
  },
  {
    "type": "公園",
    "name": "公1--新埔公園",
    "address": "新竹縣",
    "city": "新竹縣",
    "dist": "",
    "tel": "N/A",
    "lat": 24.829306,
    "lon": 121.081464
  },
  {
    "type": "藥局",
    "name": "康寧藥局",
    "address": "新竹市東區親仁里東大路1段179號",
    "city": "新竹市",
    "dist": "東區",
    "tel": "(03)5321797",
    "lat": 24.809078,
    "lon": 120.970978
  },
  {
    "type": "藥局",
    "name": "李藥局",
    "address": "新竹市東區新莊里長春街37號",
    "city": "新竹市",
    "dist": "東區",
    "tel": "(03)5779177",
    "lat": 24.7857506,
    "lon": 121.0143028
  },
  {
    "type": "藥局",
    "name": "信芳藥局",
    "address": "新竹市東區科園里科學園路133號",
    "city": "新竹市",
    "dist": "東區",
    "tel": "(03)5780595",
    "lat": 24.7836015,
    "lon": 121.011474
  },
  {
    "type": "藥局",
    "name": "金松大藥局",
    "address": "新竹市東區立功里光復路二段310號",
    "city": "新竹市",
    "dist": "東區",
    "tel": "(03)5719019",
    "lat": 24.795619,
    "lon": 120.998607
  },
  {
    "type": "藥局",
    "name": "南門藥局",
    "address": "新竹市東區關帝里南門街82號",
    "city": "新竹市",
    "dist": "東區",
    "tel": "(03)5222665",
    "lat": 24.801858,
    "lon": 120.9670993
  },
  {
    "type": "藥局",
    "name": "大家藥局",
    "address": "新竹市東區南門里武昌街6號1樓",
    "city": "新竹市",
    "dist": "東區",
    "tel": "(035)234035",
    "lat": 24.80045,
    "lon": 120.968602
  },
  {
    "type": "藥局",
    "name": "聖心藥局",
    "address": "新竹市東區南大里食品路269號",
    "city": "新竹市",
    "dist": "東區",
    "tel": "(03)5610697",
    "lat": 24.795209,
    "lon": 120.973681
  },
  {
    "type": "藥局",
    "name": "華安中西藥局",
    "address": "新竹市東區振興里南大路648號一樓",
    "city": "新竹市",
    "dist": "東區",
    "tel": "(03)5610088",
    "lat": 24.7928671,
    "lon": 120.9626127
  },
  {
    "type": "藥局",
    "name": "倫洋藥局",
    "address": "新竹市東區建中路38號1樓",
    "city": "新竹市",
    "dist": "東區",
    "tel": "(03)5749482",
    "lat": 24.8008403,
    "lon": 120.9948835
  },
  {
    "type": "藥局",
    "name": "誠真藥局",
    "address": "新竹市東區中正里中正路57號2樓",
    "city": "新竹市",
    "dist": "東區",
    "tel": "(03)5278233",
    "lat": 24.8046339,
    "lon": 120.9698489
  },
  {
    "type": "藥局",
    "name": "長青藥師藥局",
    "address": "新竹市東區民生路145號",
    "city": "新竹市",
    "dist": "東區",
    "tel": "(03)5439673",
    "lat": 24.8105749,
    "lon": 120.97644
  },
  {
    "type": "藥局",
    "name": "長明藥局",
    "address": "新竹市東區復中里中央路172號2樓",
    "city": "新竹市",
    "dist": "東區",
    "tel": "(03)5320541",
    "lat": 24.808515,
    "lon": 120.9737324
  },
  {
    "type": "藥局",
    "name": "幼安藥局",
    "address": "新竹市東區三民里民族路128號",
    "city": "新竹市",
    "dist": "東區",
    "tel": "(03)5316337",
    "lat": 24.8080292,
    "lon": 120.97765
  },
  {
    "type": "藥局",
    "name": "安禾藥局",
    "address": "新竹市東區立功里光復路二段300號",
    "city": "新竹市",
    "dist": "東區",
    "tel": "(03)5719433",
    "lat": 24.7954586,
    "lon": 120.9987784
  },
  {
    "type": "藥局",
    "name": "仁美藥局",
    "address": "新竹市東區振興里振興路52號",
    "city": "新竹市",
    "dist": "東區",
    "tel": "(03)5625398",
    "lat": 24.7949512,
    "lon": 120.9624469
  },
  {
    "type": "藥局",
    "name": "康博中西藥局",
    "address": "新竹市東區明湖里明湖路四四六之四號",
    "city": "新竹市",
    "dist": "東區",
    "tel": "(03)5191010",
    "lat": 24.7838879,
    "lon": 120.967303
  },
  {
    "type": "藥局",
    "name": "新竹實和藥局",
    "address": "新竹市東區中正里中山路27號",
    "city": "新竹市",
    "dist": "東區",
    "tel": "(03)5227636",
    "lat": 24.8055755,
    "lon": 120.9672604
  },
  {
    "type": "藥局",
    "name": "東海藥局",
    "address": "新竹市東區光復路一段213號1樓",
    "city": "新竹市",
    "dist": "東區",
    "tel": "(03)5772831",
    "lat": 24.78163,
    "lon": 121.021298
  },
  {
    "type": "藥局",
    "name": "中央藥局",
    "address": "新竹市東區中央路197號",
    "city": "新竹市",
    "dist": "東區",
    "tel": "(03)5425657",
    "lat": 24.8086886,
    "lon": 120.9736402
  },
  {
    "type": "藥局",
    "name": "康元藥局",
    "address": "新竹市東區建功一路59巷10號",
    "city": "新竹市",
    "dist": "東區",
    "tel": "(03)5749282",
    "lat": 24.8006397,
    "lon": 120.9964126
  },
  {
    "type": "藥局",
    "name": "康田大藥局",
    "address": "新竹市東區金山街102號1樓",
    "city": "新竹市",
    "dist": "東區",
    "tel": "(03)5638217",
    "lat": 24.7768611,
    "lon": 121.023664
  },
  {
    "type": "藥局",
    "name": "淯祐藥局",
    "address": "新竹市東區北大路66號之1",
    "city": "新竹市",
    "dist": "東區",
    "tel": "(03)5350083",
    "lat": 24.8124107,
    "lon": 120.9720373
  },
  {
    "type": "藥局",
    "name": "安安大藥局",
    "address": "新竹市東區金山里光復路一段163巷2號",
    "city": "新竹市",
    "dist": "東區",
    "tel": "(03)5772655",
    "lat": 24.7814287,
    "lon": 121.0222169
  },
  {
    "type": "藥局",
    "name": "東禾藥局",
    "address": "新竹市東區東門街90之1號",
    "city": "新竹市",
    "dist": "東區",
    "tel": "(03)5242772",
    "lat": 24.8042709,
    "lon": 120.971691
  },
  {
    "type": "藥局",
    "name": "三立藥局",
    "address": "新竹市東區新源街100號",
    "city": "新竹市",
    "dist": "東區",
    "tel": "(03)5740112",
    "lat": 24.8016741,
    "lon": 120.9928547
  },
  {
    "type": "藥局",
    "name": "法瑪士藥局",
    "address": "新竹市東區鐵道路2段8號",
    "city": "新竹市",
    "dist": "東區",
    "tel": "(03)5152255",
    "lat": 24.8151082,
    "lon": 120.9806918
  },
  {
    "type": "藥局",
    "name": "新康藥局",
    "address": "新竹市東區林森路188號",
    "city": "新竹市",
    "dist": "東區",
    "tel": "(03)5256938",
    "lat": 24.7991116,
    "lon": 120.9640999
  },
  {
    "type": "藥局",
    "name": "國豐大藥局",
    "address": "新竹市東區光復路一段362-18號",
    "city": "新竹市",
    "dist": "東區",
    "tel": "(03)5779960",
    "lat": 24.7838785,
    "lon": 121.0166266
  },
  {
    "type": "藥局",
    "name": "婷婷藥局",
    "address": "新竹市東區明湖路965號",
    "city": "新竹市",
    "dist": "東區",
    "tel": "(03)5290999",
    "lat": 24.7737442,
    "lon": 120.9666416
  },
  {
    "type": "藥局",
    "name": "安康藥局",
    "address": "新竹市東區民族路112號",
    "city": "新竹市",
    "dist": "東區",
    "tel": "(03)5437048",
    "lat": 24.8077194,
    "lon": 120.977124
  },
  {
    "type": "藥局",
    "name": "佳佳藥局",
    "address": "新竹市東區中華路二段704號2樓",
    "city": "新竹市",
    "dist": "東區",
    "tel": "(03)5239856",
    "lat": 24.7978341,
    "lon": 120.9646372
  },
  {
    "type": "藥局",
    "name": "博弘藥局",
    "address": "新竹市東區南大路387號",
    "city": "新竹市",
    "dist": "東區",
    "tel": "(03)5619470",
    "lat": 24.796494,
    "lon": 120.968376
  },
  {
    "type": "藥局",
    "name": "博正藥局",
    "address": "新竹市東區民族路84號",
    "city": "新竹市",
    "dist": "東區",
    "tel": "(03)5436280",
    "lat": 24.8073142,
    "lon": 120.9765276
  },
  {
    "type": "藥局",
    "name": "佑信大藥局",
    "address": "新竹市東區新莊里光復路一段362─13號",
    "city": "新竹市",
    "dist": "東區",
    "tel": "(03)6663578",
    "lat": 24.783848,
    "lon": 121.0167074
  },
  {
    "type": "藥局",
    "name": "新芳鄰藥局",
    "address": "新竹市東區南大路402號",
    "city": "新竹市",
    "dist": "東區",
    "tel": "(03)5622183",
    "lat": 24.7977211,
    "lon": 120.9695131
  },
  {
    "type": "藥局",
    "name": "澄清藥局",
    "address": "新竹市東區西大路374號1樓",
    "city": "新竹市",
    "dist": "東區",
    "tel": "(03)5246942",
    "lat": 24.8023078,
    "lon": 120.9655381
  },
  {
    "type": "藥局",
    "name": "哈佛藥局",
    "address": "新竹市東區北大路72-1號",
    "city": "新竹市",
    "dist": "東區",
    "tel": "(03)5326777",
    "lat": 24.8117878,
    "lon": 120.9710746
  },
  {
    "type": "藥局",
    "name": "杏康健保特約藥局",
    "address": "新竹市東區光復路一段525巷23號1樓",
    "city": "新竹市",
    "dist": "東區",
    "tel": "(03)5772966",
    "lat": 24.7838732,
    "lon": 121.01348
  },
  {
    "type": "藥局",
    "name": "健康小熊藥局",
    "address": "新竹市東區西大路142號2樓",
    "city": "新竹市",
    "dist": "東區",
    "tel": "(03)5622958",
    "lat": 24.7969272,
    "lon": 120.9700917
  },
  {
    "type": "藥局",
    "name": "千仟藥局",
    "address": "新竹市東區新光路48號",
    "city": "新竹市",
    "dist": "東區",
    "tel": "(03)5733315",
    "lat": 24.802233,
    "lon": 120.988912
  },
  {
    "type": "藥局",
    "name": "永安調劑藥局",
    "address": "新竹市東區光復路一段595號2樓",
    "city": "新竹市",
    "dist": "東區",
    "tel": "(03)5641461",
    "lat": 24.7858866,
    "lon": 121.0115331
  },
  {
    "type": "藥局",
    "name": "孟德爾頌藥局",
    "address": "新竹市東區東大路一段118號1樓",
    "city": "新竹市",
    "dist": "東區",
    "tel": "(03)5357177",
    "lat": 24.8060649,
    "lon": 120.9739336
  },
  {
    "type": "藥局",
    "name": "得安專業藥師藥局",
    "address": "新竹市東區中華路二段652號",
    "city": "新竹市",
    "dist": "東區",
    "tel": "(03)5283038",
    "lat": 24.7986632,
    "lon": 120.9659754
  },
  {
    "type": "藥局",
    "name": "明湖健保藥局",
    "address": "新竹市東區明湖路398號",
    "city": "新竹市",
    "dist": "東區",
    "tel": "(03)5191788",
    "lat": 24.7855462,
    "lon": 120.9674723
  },
  {
    "type": "藥局",
    "name": "宏禎藥局",
    "address": "新竹市東區建新路40號1樓",
    "city": "新竹市",
    "dist": "東區",
    "tel": "(03)5750238",
    "lat": 24.798272,
    "lon": 120.9970816
  },
  {
    "type": "藥局",
    "name": "城佑藥局",
    "address": "新竹市東區建中路59之1號",
    "city": "新竹市",
    "dist": "東區",
    "tel": "(03)5748862",
    "lat": 24.8016351,
    "lon": 120.9950074
  },
  {
    "type": "藥局",
    "name": "合康連鎖藥局光復店",
    "address": "新竹市東區光復路1段378號",
    "city": "新竹市",
    "dist": "東區",
    "tel": "(03)5670111",
    "lat": 24.7843313,
    "lon": 121.0152829
  },
  {
    "type": "藥局",
    "name": "全民好藥局",
    "address": "新竹市東區光復路一段544巷36號1樓",
    "city": "新竹市",
    "dist": "東區",
    "tel": "(03)5794698",
    "lat": 24.787685,
    "lon": 121.0111626
  },
  {
    "type": "藥局",
    "name": "禾心藥局",
    "address": "新竹市東區民生路231號1樓",
    "city": "新竹市",
    "dist": "東區",
    "tel": "(03)5332403",
    "lat": 24.8120542,
    "lon": 120.9753897
  },
  {
    "type": "藥局",
    "name": "合康連鎖藥局",
    "address": "新竹市東區中華路2段222號",
    "city": "新竹市",
    "dist": "東區",
    "tel": "(03)5321636",
    "lat": 24.8056,
    "lon": 120.976774
  },
  {
    "type": "藥局",
    "name": "康健藥局",
    "address": "新竹市東區中央路128-1號",
    "city": "新竹市",
    "dist": "東區",
    "tel": "(03)5359789",
    "lat": 24.8069565,
    "lon": 120.9711766
  },
  {
    "type": "藥局",
    "name": "芮成藥局",
    "address": "新竹市東區北大路92巷59號1樓",
    "city": "新竹市",
    "dist": "東區",
    "tel": "(03)5320622",
    "lat": 24.8129356,
    "lon": 120.9689685
  },
  {
    "type": "藥局",
    "name": "禾安藥局",
    "address": "新竹市東區龍山東路1號2樓",
    "city": "新竹市",
    "dist": "東區",
    "tel": "(03)6662782",
    "lat": 24.7897049,
    "lon": 121.0119131
  },
  {
    "type": "藥局",
    "name": "牛津藥局",
    "address": "新竹市東區民族路62號1樓",
    "city": "新竹市",
    "dist": "東區",
    "tel": "(03)5320780",
    "lat": 24.8067663,
    "lon": 120.975568
  },
  {
    "type": "藥局",
    "name": "上允藥局",
    "address": "新竹市東區光復路1段360之17號1樓",
    "city": "新竹市",
    "dist": "東區",
    "tel": "(03)6687664",
    "lat": 24.7837475,
    "lon": 121.0169917
  },
  {
    "type": "藥局",
    "name": "佑全新竹自由藥局",
    "address": "新竹市東區自由路107號1、2樓",
    "city": "新竹市",
    "dist": "東區",
    "tel": "(03)5428497",
    "lat": 24.8139955,
    "lon": 120.9798388
  },
  {
    "type": "藥局",
    "name": "小樹藥局",
    "address": "新竹市東區慈濟路3號3樓",
    "city": "新竹市",
    "dist": "東區",
    "tel": "(03)5670033",
    "lat": 24.7887378,
    "lon": 121.0129721
  },
  {
    "type": "藥局",
    "name": "關東藥局",
    "address": "新竹市東區光復路1段332、334號1~2樓",
    "city": "新竹市",
    "dist": "東區",
    "tel": "(03)5777077",
    "lat": 24.7829036,
    "lon": 121.0187424
  },
  {
    "type": "藥局",
    "name": "田美藥局",
    "address": "新竹市東區田美三街35之1號1樓",
    "city": "新竹市",
    "dist": "東區",
    "tel": "(03)5350233",
    "lat": 24.8157848,
    "lon": 120.9766447
  },
  {
    "type": "藥局",
    "name": "倫洲藥局",
    "address": "新竹市東區食品路97號1樓",
    "city": "新竹市",
    "dist": "東區",
    "tel": "(03)5744088",
    "lat": 24.7979501,
    "lon": 120.977935
  },
  {
    "type": "藥局",
    "name": "華妤潾藥局",
    "address": "新竹市東區龍山東路206號1樓",
    "city": "新竹市",
    "dist": "東區",
    "tel": "(03)5795023",
    "lat": 24.7889306,
    "lon": 121.0119805
  },
  {
    "type": "藥局",
    "name": "新莊藥局",
    "address": "新竹市東區光復路1段473號1樓",
    "city": "新竹市",
    "dist": "東區",
    "tel": "(03)5634775",
    "lat": 24.7841178,
    "lon": 121.0148966
  },
  {
    "type": "藥局",
    "name": "佑全新竹光復藥局",
    "address": "新竹市東區仙水里光復路1段353號1樓",
    "city": "新竹市",
    "dist": "東區",
    "tel": "(03)6661826",
    "lat": 24.7830865,
    "lon": 121.0175847
  },
  {
    "type": "藥局",
    "name": "金佑信藥局",
    "address": "新竹市東區光復路1段176號1樓",
    "city": "新竹市",
    "dist": "東區",
    "tel": "(03)6663185",
    "lat": 24.7817175,
    "lon": 121.0224098
  },
  {
    "type": "藥局",
    "name": "合康連鎖藥局關新店",
    "address": "新竹市東區關新北路161號1樓",
    "city": "新竹市",
    "dist": "東區",
    "tel": "(03)5679666",
    "lat": 24.7860556,
    "lon": 121.0206117
  },
  {
    "type": "藥局",
    "name": "康妍藥局",
    "address": "新竹市東區西大路126號1樓",
    "city": "新竹市",
    "dist": "東區",
    "tel": "(03)5622476",
    "lat": 24.7966426,
    "lon": 120.9703295
  },
  {
    "type": "藥局",
    "name": "丁丁藥局",
    "address": "新竹市東區中華路二段91號",
    "city": "新竹市",
    "dist": "東區",
    "tel": "(03)6117888",
    "lat": 24.8078317,
    "lon": 120.9813408
  },
  {
    "type": "藥局",
    "name": "生生藥局",
    "address": "新竹市東區中華路二段159號1樓",
    "city": "新竹市",
    "dist": "東區",
    "tel": "(03)5319550",
    "lat": 24.8068263,
    "lon": 120.9796452
  },
  {
    "type": "藥局",
    "name": "合康連鎖藥局食品店",
    "address": "新竹市東區食品路140號1樓",
    "city": "新竹市",
    "dist": "東區",
    "tel": "(03)5621111",
    "lat": 24.7976968,
    "lon": 120.9769362
  },
  {
    "type": "藥局",
    "name": "笛卡爾藥局",
    "address": "新竹市東區光復路一段360-16號1樓",
    "city": "新竹市",
    "dist": "東區",
    "tel": "(03)5781616",
    "lat": 24.7834309,
    "lon": 121.0176503
  },
  {
    "type": "藥局",
    "name": "仁春藥局",
    "address": "新竹市東區慈濟路252號1樓",
    "city": "新竹市",
    "dist": "東區",
    "tel": "(03)6686718",
    "lat": 24.7924475,
    "lon": 121.0153042
  },
  {
    "type": "藥局",
    "name": "永盛藥局",
    "address": "新竹市北區金華里光華二街6號",
    "city": "新竹市",
    "dist": "北區",
    "tel": "(035)325352",
    "lat": 24.8169862,
    "lon": 120.9743761
  },
  {
    "type": "藥局",
    "name": "劉藥局",
    "address": "新竹市北區育英里四維路51號",
    "city": "新竹市",
    "dist": "北區",
    "tel": "(03)5247658",
    "lat": 24.8000554,
    "lon": 120.9613278
  },
  {
    "type": "藥局",
    "name": "永富大藥局",
    "address": "新竹市北區中山里北門街18號",
    "city": "新竹市",
    "dist": "北區",
    "tel": "(035)234856",
    "lat": 24.8053913,
    "lon": 120.9661294
  },
  {
    "type": "藥局",
    "name": "健和藥局",
    "address": "新竹市北區大同里大同路178號",
    "city": "新竹市",
    "dist": "北區",
    "tel": "(03)5231734",
    "lat": 24.8073052,
    "lon": 120.9668155
  },
  {
    "type": "藥局",
    "name": "芳鄰藥局",
    "address": "新竹市北區光田里水田街157號",
    "city": "新竹市",
    "dist": "北區",
    "tel": "(03)5314948",
    "lat": 24.8167241,
    "lon": 120.968877
  },
  {
    "type": "藥局",
    "name": "保健藥局",
    "address": "新竹市北區中山路153號1樓",
    "city": "新竹市",
    "dist": "北區",
    "tel": "(03)5242088",
    "lat": 24.8032808,
    "lon": 120.9636782
  },
  {
    "type": "藥局",
    "name": "台大藥局",
    "address": "新竹市北區西大路618號一樓",
    "city": "新竹市",
    "dist": "北區",
    "tel": "(03)5282932",
    "lat": 24.8073821,
    "lon": 120.9616511
  },
  {
    "type": "藥局",
    "name": "全禾藥局",
    "address": "新竹市北區潛園里集和街25號",
    "city": "新竹市",
    "dist": "北區",
    "tel": "(03)5249173",
    "lat": 24.8049252,
    "lon": 120.961538
  },
  {
    "type": "藥局",
    "name": "新廣德中西藥局",
    "address": "新竹市北區民富里延平路1段166號",
    "city": "新竹市",
    "dist": "北區",
    "tel": "(03)5225386",
    "lat": 24.8047958,
    "lon": 120.9564696
  },
  {
    "type": "藥局",
    "name": "健康藥局",
    "address": "新竹市北區延平路一段167號",
    "city": "新竹市",
    "dist": "北區",
    "tel": "(03)5264697",
    "lat": 24.8044881,
    "lon": 120.9562008
  },
  {
    "type": "藥局",
    "name": "家庭藥局",
    "address": "新竹市北區光華街99-1號2樓",
    "city": "新竹市",
    "dist": "北區",
    "tel": "(03)5456093",
    "lat": 24.8182001,
    "lon": 120.9716713
  },
  {
    "type": "藥局",
    "name": "正大藥局",
    "address": "新竹市北區中正路三九○號",
    "city": "新竹市",
    "dist": "北區",
    "tel": "(03)5356056",
    "lat": 24.8147352,
    "lon": 120.9625275
  },
  {
    "type": "藥局",
    "name": "廣元藥局",
    "address": "新竹市北區東大路二段180號",
    "city": "新竹市",
    "dist": "北區",
    "tel": "(03)5317004",
    "lat": 24.8161962,
    "lon": 120.9657802
  },
  {
    "type": "藥局",
    "name": "台安藥局",
    "address": "新竹市北區北大路464號",
    "city": "新竹市",
    "dist": "北區",
    "tel": "(03)5235953",
    "lat": 24.8017471,
    "lon": 120.959844
  },
  {
    "type": "藥局",
    "name": "佑健藥局",
    "address": "新竹市北區經國路二段531號1樓",
    "city": "新竹市",
    "dist": "北區",
    "tel": "(03)5230356",
    "lat": 24.8046154,
    "lon": 120.9557052
  },
  {
    "type": "藥局",
    "name": "欣欣藥局",
    "address": "新竹市北區西大路736巷1號",
    "city": "新竹市",
    "dist": "北區",
    "tel": "(03)5351205",
    "lat": 24.8100945,
    "lon": 120.9591559
  },
  {
    "type": "藥局",
    "name": "長福藥局",
    "address": "新竹市北區經國路2段485號",
    "city": "新竹市",
    "dist": "北區",
    "tel": "(03)5243681",
    "lat": 24.805818,
    "lon": 120.9561861
  },
  {
    "type": "藥局",
    "name": "保安藥局",
    "address": "新竹市北區西大路617號",
    "city": "新竹市",
    "dist": "北區",
    "tel": "(03)5258636",
    "lat": 24.8098788,
    "lon": 120.9588457
  },
  {
    "type": "藥局",
    "name": "芳里藥局",
    "address": "新竹市北區延平路一段214巷2號",
    "city": "新竹市",
    "dist": "北區",
    "tel": "(03)5222989",
    "lat": 24.8053461,
    "lon": 120.954479
  },
  {
    "type": "藥局",
    "name": "均祐健康藥局",
    "address": "新竹市北區境福里15鄰中正路389號1樓",
    "city": "新竹市",
    "dist": "北區",
    "tel": "(03)5325369",
    "lat": 24.815421,
    "lon": 120.960929
  },
  {
    "type": "藥局",
    "name": "好一生藥局",
    "address": "新竹市北區湳雅街118號1樓",
    "city": "新竹市",
    "dist": "北區",
    "tel": "(03)5331099",
    "lat": 24.819709,
    "lon": 120.9730452
  },
  {
    "type": "藥局",
    "name": "健霖藥局",
    "address": "新竹市北區中山路275號2樓",
    "city": "新竹市",
    "dist": "北區",
    "tel": "(03)5250389",
    "lat": 24.8014159,
    "lon": 120.9607182
  },
  {
    "type": "藥局",
    "name": "豐盛藥局",
    "address": "新竹市北區光華二街35號",
    "city": "新竹市",
    "dist": "北區",
    "tel": "(03)5335651",
    "lat": 24.8181959,
    "lon": 120.9747525
  },
  {
    "type": "藥局",
    "name": "幼能健保藥局",
    "address": "新竹市北區竹光路108號1樓",
    "city": "新竹市",
    "dist": "北區",
    "tel": "(03)5339750",
    "lat": 24.8133421,
    "lon": 120.959178
  },
  {
    "type": "藥局",
    "name": "閎安專業藥局",
    "address": "新竹市北區延平路三段687號1樓",
    "city": "新竹市",
    "dist": "北區",
    "tel": "(03)5368675",
    "lat": 24.8406992,
    "lon": 120.9366664
  },
  {
    "type": "藥局",
    "name": "吉康藥局",
    "address": "新竹市北區東大路3段503號",
    "city": "新竹市",
    "dist": "北區",
    "tel": "(03)5369916",
    "lat": 24.839725,
    "lon": 120.938292
  },
  {
    "type": "藥局",
    "name": "盛安藥局",
    "address": "新竹市北區育英里3鄰中山路281號",
    "city": "新竹市",
    "dist": "北區",
    "tel": "(03)5225668",
    "lat": 24.801129,
    "lon": 120.960389
  },
  {
    "type": "藥局",
    "name": "中福藥局",
    "address": "新竹市北區中福路83號",
    "city": "新竹市",
    "dist": "北區",
    "tel": "(03)5366996",
    "lat": 24.8407729,
    "lon": 120.9327181
  },
  {
    "type": "藥局",
    "name": "永沛藥局",
    "address": "新竹市北區湳雅街209號",
    "city": "新竹市",
    "dist": "北區",
    "tel": "(03)5328563",
    "lat": 24.8209281,
    "lon": 120.974071
  },
  {
    "type": "藥局",
    "name": "好鄰居健保藥局",
    "address": "新竹市北區西門街123號(1樓)",
    "city": "新竹市",
    "dist": "北區",
    "tel": "(03)5400538",
    "lat": 24.8013424,
    "lon": 120.9635186
  },
  {
    "type": "藥局",
    "name": "悅橙藥局",
    "address": "新竹市北區延平路1段161巷43號1樓",
    "city": "新竹市",
    "dist": "北區",
    "tel": "(03)5250805",
    "lat": 24.8033701,
    "lon": 120.9560745
  },
  {
    "type": "藥局",
    "name": "興安藥局",
    "address": "新竹市北區延平路1段367號1樓",
    "city": "新竹市",
    "dist": "北區",
    "tel": "(03)5230873",
    "lat": 24.8049794,
    "lon": 120.9496173
  },
  {
    "type": "藥局",
    "name": "合康連鎖藥局西大店",
    "address": "新竹市北區西大路636、638號1樓",
    "city": "新竹市",
    "dist": "北區",
    "tel": "(03)5233111",
    "lat": 24.8100341,
    "lon": 120.9589711
  },
  {
    "type": "藥局",
    "name": "合康連鎖藥局湳雅店",
    "address": "新竹市北區國華街74號1樓",
    "city": "新竹市",
    "dist": "北區",
    "tel": "(03)5315188",
    "lat": 24.8171758,
    "lon": 120.9702143
  },
  {
    "type": "藥局",
    "name": "佑全新竹光華藥局",
    "address": "新竹市北區湳雅里光華街86之1號1樓及2樓",
    "city": "新竹市",
    "dist": "北區",
    "tel": "(03)5311313",
    "lat": 24.8172336,
    "lon": 120.9723208
  },
  {
    "type": "藥局",
    "name": "承康藥局",
    "address": "新竹市北區北大路203號1樓",
    "city": "新竹市",
    "dist": "北區",
    "tel": "(03)5212900",
    "lat": 24.8081312,
    "lon": 120.9656909
  },
  {
    "type": "藥局",
    "name": "立新藥師藥局",
    "address": "新竹市北區延平路一段245號1樓",
    "city": "新竹市",
    "dist": "北區",
    "tel": "(03)5228968",
    "lat": 24.8049122,
    "lon": 120.9533467
  },
  {
    "type": "藥局",
    "name": "仁星藥局",
    "address": "新竹市北區西大路856號1樓",
    "city": "新竹市",
    "dist": "北區",
    "tel": "(03)5313278",
    "lat": 24.811556,
    "lon": 120.9563026
  },
  {
    "type": "藥局",
    "name": "康立藥局",
    "address": "新竹市北區水田街162號1樓",
    "city": "新竹市",
    "dist": "北區",
    "tel": "(03)5457591",
    "lat": 24.8156949,
    "lon": 120.9681081
  },
  {
    "type": "藥局",
    "name": "四維丁丁藥局",
    "address": "新竹市北區四維路19-2號1樓",
    "city": "新竹市",
    "dist": "北區",
    "tel": "(03)5251371",
    "lat": 24.7983008,
    "lon": 120.9622684
  },
  {
    "type": "藥局",
    "name": "仁佑藥局",
    "address": "新竹市北區南寮里西濱路一段500號1樓",
    "city": "新竹市",
    "dist": "北區",
    "tel": "(03)5363818",
    "lat": 24.8422101,
    "lon": 120.9342187
  },
  {
    "type": "藥局",
    "name": "新竹北門藥局",
    "address": "新竹市北區中正路360、362號1樓",
    "city": "新竹市",
    "dist": "北區",
    "tel": "(03)5333234",
    "lat": 24.8141628,
    "lon": 120.9629194
  },
  {
    "type": "藥局",
    "name": "躍獅光華藥局",
    "address": "新竹市北區光華東街36-1號1樓",
    "city": "新竹市",
    "dist": "北區",
    "tel": "(03)5331281",
    "lat": 24.8158705,
    "lon": 120.9743532
  },
  {
    "type": "藥局",
    "name": "速安藥局",
    "address": "新竹市香山區中華路6段676號",
    "city": "新竹市",
    "dist": "香山區",
    "tel": "(035)371557",
    "lat": 24.730862,
    "lon": 120.915921
  },
  {
    "type": "藥局",
    "name": "新祥發大藥局",
    "address": "新竹市香山區香山里1鄰中華路五段42號",
    "city": "新竹市",
    "dist": "香山區",
    "tel": "(03)5381552",
    "lat": 24.7883016,
    "lon": 120.9276834
  },
  {
    "type": "藥局",
    "name": "健安藥局",
    "address": "新竹市香山區內湖路六十號",
    "city": "新竹市",
    "dist": "香山區",
    "tel": "(03)5370111",
    "lat": 24.7440111,
    "lon": 120.905677
  },
  {
    "type": "藥局",
    "name": "高晟藥師藥局",
    "address": "新竹市香山區大庄路59號",
    "city": "新竹市",
    "dist": "香山區",
    "tel": "(03)5306645",
    "lat": 24.7897064,
    "lon": 120.9279861
  },
  {
    "type": "藥局",
    "name": "健佑藥局",
    "address": "新竹市香山區大庄路45巷6號",
    "city": "新竹市",
    "dist": "香山區",
    "tel": "(03)5306555",
    "lat": 24.7893372,
    "lon": 120.928345
  },
  {
    "type": "藥局",
    "name": "香山丁丁藥局",
    "address": "新竹市香山區牛埔東路247號1樓",
    "city": "新竹市",
    "dist": "香山區",
    "tel": "(03)5384612",
    "lat": 24.7960257,
    "lon": 120.9440171
  },
  {
    "type": "藥局",
    "name": "聯合大藥局",
    "address": "新竹縣關西鎮西安里正義路91號",
    "city": "新竹縣",
    "dist": "關西鎮",
    "tel": "(03)5877767",
    "lat": 24.794478,
    "lon": 121.175981
  },
  {
    "type": "藥局",
    "name": "明德藥局",
    "address": "新竹縣關西鎮中山路18號",
    "city": "新竹縣",
    "dist": "關西鎮",
    "tel": "(03)5874335",
    "lat": 24.7914956,
    "lon": 121.1778044
  },
  {
    "type": "藥局",
    "name": "仁泰藥局",
    "address": "新竹縣關西鎮石光里6鄰268號",
    "city": "新竹縣",
    "dist": "關西鎮",
    "tel": "(03)5868391",
    "lat": 24.812186,
    "lon": 121.1315929
  },
  {
    "type": "藥局",
    "name": "進安藥局",
    "address": "新竹縣關西鎮正義路15號",
    "city": "新竹縣",
    "dist": "關西鎮",
    "tel": "(03)5872153",
    "lat": 24.791791,
    "lon": 121.1760111
  },
  {
    "type": "藥局",
    "name": "佳仁藥局",
    "address": "新竹縣關西鎮中興路12號",
    "city": "新竹縣",
    "dist": "關西鎮",
    "tel": "(035)872298",
    "lat": 24.7922549,
    "lon": 121.1770646
  },
  {
    "type": "藥局",
    "name": "康和藥局",
    "address": "新竹縣關西鎮正義路79號",
    "city": "新竹縣",
    "dist": "關西鎮",
    "tel": "(03)5870068",
    "lat": 24.793904,
    "lon": 121.17596
  },
  {
    "type": "藥局",
    "name": "高平堂藥局",
    "address": "新竹縣關西鎮正義路66號",
    "city": "新竹縣",
    "dist": "關西鎮",
    "tel": "(03)5872263",
    "lat": 24.7926489,
    "lon": 121.1760999
  },
  {
    "type": "藥局",
    "name": "仁禾藥局",
    "address": "新竹縣關西鎮正義路34號",
    "city": "新竹縣",
    "dist": "關西鎮",
    "tel": "(03)5171368",
    "lat": 24.7920397,
    "lon": 121.1761902
  },
  {
    "type": "藥局",
    "name": "安東藥師藥局",
    "address": "新竹縣關西鎮中山路62號",
    "city": "新竹縣",
    "dist": "關西鎮",
    "tel": "(03)5872385",
    "lat": 24.7914034,
    "lon": 121.1764704
  },
  {
    "type": "藥局",
    "name": "關西藥局",
    "address": "新竹縣關西鎮中山路68號",
    "city": "新竹縣",
    "dist": "關西鎮",
    "tel": "(03)5171121",
    "lat": 24.7914674,
    "lon": 121.1763286
  },
  {
    "type": "藥局",
    "name": "廣和藥局",
    "address": "新竹縣新埔鎮中正路292號",
    "city": "新竹縣",
    "dist": "新埔鎮",
    "tel": "(035)885959",
    "lat": 24.827584,
    "lon": 121.0809651
  },
  {
    "type": "藥局",
    "name": "日興藥局",
    "address": "新竹縣新埔鎮中正路328號",
    "city": "新竹縣",
    "dist": "新埔鎮",
    "tel": "(03)5889910",
    "lat": 24.8277986,
    "lon": 121.0802266
  },
  {
    "type": "藥局",
    "name": "康立藥局新埔店",
    "address": "新竹縣新埔鎮中正路381號",
    "city": "新竹縣",
    "dist": "新埔鎮",
    "tel": "(03)5896129",
    "lat": 24.8278491,
    "lon": 121.0765831
  },
  {
    "type": "藥局",
    "name": "梁藥局",
    "address": "新竹縣新埔鎮中正路233號",
    "city": "新竹縣",
    "dist": "新埔鎮",
    "tel": "(03)5885439",
    "lat": 24.827666,
    "lon": 121.0798511
  },
  {
    "type": "藥局",
    "name": "新普藥局",
    "address": "新竹縣新埔鎮田新里福德街470號",
    "city": "新竹縣",
    "dist": "新埔鎮",
    "tel": "(03)5887744",
    "lat": 24.8261332,
    "lon": 121.0763838
  },
  {
    "type": "藥局",
    "name": "健民藥局",
    "address": "新竹縣竹東鎮東寧路二段315號",
    "city": "新竹縣",
    "dist": "竹東鎮",
    "tel": "(03)5952268",
    "lat": 24.7359797,
    "lon": 121.0883516
  },
  {
    "type": "藥局",
    "name": "鄧藥局",
    "address": "新竹縣竹東鎮榮樂里大同路43號",
    "city": "新竹縣",
    "dist": "竹東鎮",
    "tel": "(03)5952908",
    "lat": 24.7384243,
    "lon": 121.0881477
  },
  {
    "type": "藥局",
    "name": "國瑞藥局",
    "address": "新竹縣竹東鎮竹東里大同路21號",
    "city": "新竹縣",
    "dist": "竹東鎮",
    "tel": "(035)966698",
    "lat": 24.7379754,
    "lon": 121.0875431
  },
  {
    "type": "藥局",
    "name": "榮信藥局",
    "address": "新竹縣竹東鎮忠孝里長春路三段43號",
    "city": "新竹縣",
    "dist": "竹東鎮",
    "tel": "(035)963549",
    "lat": 24.7407638,
    "lon": 121.0858624
  },
  {
    "type": "藥局",
    "name": "華德藥局",
    "address": "新竹縣竹東鎮東林路15號",
    "city": "新竹縣",
    "dist": "竹東鎮",
    "tel": "(03)5940019",
    "lat": 24.7369072,
    "lon": 121.0888224
  },
  {
    "type": "藥局",
    "name": "健通藥局",
    "address": "新竹縣竹東鎮東寧路三段101號一樓",
    "city": "新竹縣",
    "dist": "竹東鎮",
    "tel": "(03)5947630",
    "lat": 24.7390081,
    "lon": 121.0862806
  },
  {
    "type": "藥局",
    "name": "永康藥局",
    "address": "新竹縣竹東鎮長春路3段5號2樓",
    "city": "新竹縣",
    "dist": "竹東鎮",
    "tel": "(03)5954706",
    "lat": 24.7400711,
    "lon": 121.0863524
  },
  {
    "type": "藥局",
    "name": "能安西藥局",
    "address": "新竹縣竹東鎮東峰路13號",
    "city": "新竹縣",
    "dist": "竹東鎮",
    "tel": "(03)5950515",
    "lat": 24.7216941,
    "lon": 121.096516
  },
  {
    "type": "藥局",
    "name": "合康藥局",
    "address": "新竹縣竹東鎮興農街11號",
    "city": "新竹縣",
    "dist": "竹東鎮",
    "tel": "(03)5103818",
    "lat": 24.7398793,
    "lon": 121.0861325
  },
  {
    "type": "藥局",
    "name": "平安佳藥局",
    "address": "新竹縣竹東鎮東寧路3段21號",
    "city": "新竹縣",
    "dist": "竹東鎮",
    "tel": "(03)5963138",
    "lat": 24.7369777,
    "lon": 121.0880357
  },
  {
    "type": "藥局",
    "name": "好好藥局",
    "address": "新竹縣竹東鎮中興路三段276號",
    "city": "新竹縣",
    "dist": "竹東鎮",
    "tel": "(03)5830678",
    "lat": 24.7693768,
    "lon": 121.0541935
  },
  {
    "type": "藥局",
    "name": "健康人生藥局",
    "address": "新竹縣竹東鎮中興路四段195號52館B116室",
    "city": "新竹縣",
    "dist": "竹東鎮",
    "tel": "(03)5910472",
    "lat": 24.7740919,
    "lon": 121.0479329
  },
  {
    "type": "藥局",
    "name": "日榮堂藥局",
    "address": "新竹縣竹東鎮長春路一段281號",
    "city": "新竹縣",
    "dist": "竹東鎮",
    "tel": "(03)5962335",
    "lat": 24.7361022,
    "lon": 121.0892222
  },
  {
    "type": "藥局",
    "name": "國豐大藥局",
    "address": "新竹縣竹東鎮長春路三段6號",
    "city": "新竹縣",
    "dist": "竹東鎮",
    "tel": "(03)5960360",
    "lat": 24.7402266,
    "lon": 121.0865297
  },
  {
    "type": "藥局",
    "name": "仁愛藥局",
    "address": "新竹縣竹東鎮商華街33號",
    "city": "新竹縣",
    "dist": "竹東鎮",
    "tel": "(03)5953458",
    "lat": 24.7373824,
    "lon": 121.0881798
  },
  {
    "type": "藥局",
    "name": "竹東朝陽藥局",
    "address": "新竹縣竹東鎮朝陽路1號1、2樓",
    "city": "新竹縣",
    "dist": "竹東鎮",
    "tel": "(03)5111166",
    "lat": 24.7419776,
    "lon": 121.0851836
  },
  {
    "type": "藥局",
    "name": "樂安藥師藥局",
    "address": "新竹縣竹東鎮東林路89號",
    "city": "新竹縣",
    "dist": "竹東鎮",
    "tel": "(03)5101941",
    "lat": 24.7370841,
    "lon": 121.0915392
  },
  {
    "type": "藥局",
    "name": "新月藥局",
    "address": "新竹縣竹東鎮永康街81號1樓",
    "city": "新竹縣",
    "dist": "竹東鎮",
    "tel": "(03)5960501",
    "lat": 24.7483376,
    "lon": 121.0816099
  },
  {
    "type": "藥局",
    "name": "順佳藥局",
    "address": "新竹縣竹東鎮東寧路二段200號3樓",
    "city": "新竹縣",
    "dist": "竹東鎮",
    "tel": "(03)5957908",
    "lat": 24.7336909,
    "lon": 121.0886192
  },
  {
    "type": "藥局",
    "name": "春天藥局",
    "address": "新竹縣竹東鎮長春路二段95號",
    "city": "新竹縣",
    "dist": "竹東鎮",
    "tel": "(03)5967995",
    "lat": 24.7390595,
    "lon": 121.0872667
  },
  {
    "type": "藥局",
    "name": "鑫美藥局",
    "address": "新竹縣竹東鎮長春路三段197號3樓",
    "city": "新竹縣",
    "dist": "竹東鎮",
    "tel": "(03)5969615",
    "lat": 24.7440683,
    "lon": 121.0828966
  },
  {
    "type": "藥局",
    "name": "杏仁渼藥局",
    "address": "新竹縣竹東鎮中興路三段174號",
    "city": "新竹縣",
    "dist": "竹東鎮",
    "tel": "(03)5835237",
    "lat": 24.7676187,
    "lon": 121.0559732
  },
  {
    "type": "藥局",
    "name": "東林藥局",
    "address": "新竹縣竹東鎮東林路80號",
    "city": "新竹縣",
    "dist": "竹東鎮",
    "tel": "(03)5961321",
    "lat": 24.7368774,
    "lon": 121.0913451
  },
  {
    "type": "藥局",
    "name": "夏天藥局",
    "address": "新竹縣竹東鎮長春路二段83號",
    "city": "新竹縣",
    "dist": "竹東鎮",
    "tel": "(03)5960800",
    "lat": 24.7388251,
    "lon": 121.0874425
  },
  {
    "type": "藥局",
    "name": "康立藥局",
    "address": "新竹縣竹北市竹仁里中正東路288號",
    "city": "新竹縣",
    "dist": "竹北市",
    "tel": "(03)5518093",
    "lat": 24.8354022,
    "lon": 121.012296
  },
  {
    "type": "藥局",
    "name": "健新藥局",
    "address": "新竹縣竹北市中正西路271號",
    "city": "新竹縣",
    "dist": "竹北市",
    "tel": "(03)5527300",
    "lat": 24.842557,
    "lon": 120.996864
  },
  {
    "type": "藥局",
    "name": "六久藥局",
    "address": "新竹縣竹北市新社里華興街148號",
    "city": "新竹縣",
    "dist": "竹北市",
    "tel": "(03)5557485",
    "lat": 24.8402183,
    "lon": 121.0027772
  },
  {
    "type": "藥局",
    "name": "救星藥局",
    "address": "新竹縣竹北市中山路492號",
    "city": "新竹縣",
    "dist": "竹北市",
    "tel": "(03)5552913",
    "lat": 24.8338734,
    "lon": 121.0270641
  },
  {
    "type": "藥局",
    "name": "林保郎藥師藥局",
    "address": "新竹縣竹北市光明一路392號",
    "city": "新竹縣",
    "dist": "竹北市",
    "tel": "(03)5586879",
    "lat": 24.830991,
    "lon": 121.0124115
  },
  {
    "type": "藥局",
    "name": "健安藥局",
    "address": "新竹縣竹北市中山路458號",
    "city": "新竹縣",
    "dist": "竹北市",
    "tel": "(03)5536591",
    "lat": 24.8386719,
    "lon": 121.0112582
  },
  {
    "type": "藥局",
    "name": "北一藥師藥局",
    "address": "新竹縣竹北市中正東路210號",
    "city": "新竹縣",
    "dist": "竹北市",
    "tel": "(03)5539160",
    "lat": 24.8352671,
    "lon": 121.0142261
  },
  {
    "type": "藥局",
    "name": "吉新藥局",
    "address": "新竹縣竹北市中華路354號",
    "city": "新竹縣",
    "dist": "竹北市",
    "tel": "(03)5512953",
    "lat": 24.8371027,
    "lon": 121.0053048
  },
  {
    "type": "藥局",
    "name": "博士藥局",
    "address": "新竹縣竹北市縣政九路168號1樓",
    "city": "新竹縣",
    "dist": "竹北市",
    "tel": "(035)516243",
    "lat": 24.8313501,
    "lon": 121.0120797
  },
  {
    "type": "藥局",
    "name": "良美藥局",
    "address": "新竹縣竹北市博愛街174號",
    "city": "新竹縣",
    "dist": "竹北市",
    "tel": "(03)5520460",
    "lat": 24.8324192,
    "lon": 121.005772
  },
  {
    "type": "藥局",
    "name": "禾松藥局",
    "address": "新竹縣竹北市勝利5路23號",
    "city": "新竹縣",
    "dist": "竹北市",
    "tel": "(03)6577267",
    "lat": 24.8247024,
    "lon": 121.0248716
  },
  {
    "type": "藥局",
    "name": "真善美藥局",
    "address": "新竹縣竹北市勝利五路176號",
    "city": "新竹縣",
    "dist": "竹北市",
    "tel": "(03)6589478",
    "lat": 24.8232867,
    "lon": 121.0285808
  },
  {
    "type": "藥局",
    "name": "無尾熊藥師藥局",
    "address": "新竹縣竹北市莊敬五街6號",
    "city": "新竹縣",
    "dist": "竹北市",
    "tel": "(03)6577535",
    "lat": 24.8212341,
    "lon": 121.0261703
  },
  {
    "type": "藥局",
    "name": "波士頓藥局",
    "address": "新竹縣竹北市民權街67號",
    "city": "新竹縣",
    "dist": "竹北市",
    "tel": "(03)6560060",
    "lat": 24.8322127,
    "lon": 121.0121797
  },
  {
    "type": "藥局",
    "name": "健元藥局",
    "address": "新竹縣竹北市中正東路265號",
    "city": "新竹縣",
    "dist": "竹北市",
    "tel": "(03)5529891",
    "lat": 24.8350614,
    "lon": 121.0132118
  },
  {
    "type": "藥局",
    "name": "詠美藥局",
    "address": "新竹縣竹北市三民路441號",
    "city": "新竹縣",
    "dist": "竹北市",
    "tel": "(03)5536796",
    "lat": 24.8348705,
    "lon": 121.0087804
  },
  {
    "type": "藥局",
    "name": "長康藥師藥局",
    "address": "新竹縣竹北市光明一路212號",
    "city": "新竹縣",
    "dist": "竹北市",
    "tel": "(03)6572696",
    "lat": 24.8305771,
    "lon": 121.0155637
  },
  {
    "type": "藥局",
    "name": "家欣藥局",
    "address": "新竹縣竹北市中興里嘉豐六路一段29號1樓",
    "city": "新竹縣",
    "dist": "竹北市",
    "tel": "(03)6681539",
    "lat": 24.8135529,
    "lon": 121.0320249
  },
  {
    "type": "藥局",
    "name": "佑安藥局",
    "address": "新竹縣竹北市中正西路31號1樓",
    "city": "新竹縣",
    "dist": "竹北市",
    "tel": "(03)6563386",
    "lat": 24.8401147,
    "lon": 121.002049
  },
  {
    "type": "藥局",
    "name": "振元藥師藥局",
    "address": "新竹縣竹北市自強南路201號",
    "city": "新竹縣",
    "dist": "竹北市",
    "tel": "(03)6587052",
    "lat": 24.813594,
    "lon": 121.0237669
  },
  {
    "type": "藥局",
    "name": "嘉岳藥局",
    "address": "新竹縣竹北市勝利三街38號",
    "city": "新竹縣",
    "dist": "竹北市",
    "tel": "(03)6585707",
    "lat": 24.8232165,
    "lon": 121.0264909
  },
  {
    "type": "藥局",
    "name": "正科大藥局",
    "address": "新竹縣竹北市科大一路16號",
    "city": "新竹縣",
    "dist": "竹北市",
    "tel": "(03)6573561",
    "lat": 24.8222668,
    "lon": 121.0076189
  },
  {
    "type": "藥局",
    "name": "阿姆斯壯藥局",
    "address": "新竹縣竹北市六家五路一段125號",
    "city": "新竹縣",
    "dist": "竹北市",
    "tel": "(03)6589178",
    "lat": 24.809612,
    "lon": 121.0254208
  },
  {
    "type": "藥局",
    "name": "欣欣藥局",
    "address": "新竹縣竹北市成功八路100號",
    "city": "新竹縣",
    "dist": "竹北市",
    "tel": "(03)6676287",
    "lat": 24.8181352,
    "lon": 121.0168907
  },
  {
    "type": "藥局",
    "name": "竹仁藥師藥局",
    "address": "新竹縣竹北市仁和街6號1樓",
    "city": "新竹縣",
    "dist": "竹北市",
    "tel": "(03)5528947",
    "lat": 24.83703,
    "lon": 121.012739
  },
  {
    "type": "藥局",
    "name": "仁康藥局",
    "address": "新竹縣竹北市縣政九路176號2樓",
    "city": "新竹縣",
    "dist": "竹北市",
    "tel": "(03)5518777",
    "lat": 24.8314887,
    "lon": 121.0121129
  },
  {
    "type": "藥局",
    "name": "晶華藥局",
    "address": "新竹縣竹北市莊敬南路110號1樓",
    "city": "新竹縣",
    "dist": "竹北市",
    "tel": "(03)5502107",
    "lat": 24.8173878,
    "lon": 121.0202844
  },
  {
    "type": "藥局",
    "name": "健樹藥局",
    "address": "新竹縣竹北市莊敬三路39號1樓",
    "city": "新竹縣",
    "dist": "竹北市",
    "tel": "(03)5505262",
    "lat": 24.8225319,
    "lon": 121.0248748
  },
  {
    "type": "藥局",
    "name": "仁里藥局",
    "address": "新竹縣竹北市勝利二路125號",
    "city": "新竹縣",
    "dist": "竹北市",
    "tel": "(03)6673878",
    "lat": 24.8223711,
    "lon": 121.0278638
  },
  {
    "type": "藥局",
    "name": "芳鄰藥局",
    "address": "新竹縣竹北市三民路261號之1號",
    "city": "新竹縣",
    "dist": "竹北市",
    "tel": "(03)6213887",
    "lat": 24.8330766,
    "lon": 121.0129546
  },
  {
    "type": "藥局",
    "name": "如佳藥局",
    "address": "新竹縣竹北市中正西路189號",
    "city": "新竹縣",
    "dist": "竹北市",
    "tel": "(03)5533161",
    "lat": 24.8416428,
    "lon": 120.998756
  },
  {
    "type": "藥局",
    "name": "禾坊藥局",
    "address": "新竹縣竹北市科大一路85號",
    "city": "新竹縣",
    "dist": "竹北市",
    "tel": "(03)5588797",
    "lat": 24.8214226,
    "lon": 121.0094876
  },
  {
    "type": "藥局",
    "name": "中一藥局",
    "address": "新竹縣竹北市文興路一段242號1樓",
    "city": "新竹縣",
    "dist": "竹北市",
    "tel": "(03)6670827",
    "lat": 24.8101753,
    "lon": 121.0286912
  },
  {
    "type": "藥局",
    "name": "祐祐藥局",
    "address": "新竹縣竹北市中正西路103號",
    "city": "新竹縣",
    "dist": "竹北市",
    "tel": "(03)5552969",
    "lat": 24.8407737,
    "lon": 121.00057
  },
  {
    "type": "藥局",
    "name": "仁暉藥局",
    "address": "新竹縣竹北市北崙里博愛街202號",
    "city": "新竹縣",
    "dist": "竹北市",
    "tel": "(03)5528118",
    "lat": 24.8331975,
    "lon": 121.0065481
  },
  {
    "type": "藥局",
    "name": "日安藥局",
    "address": "新竹縣竹北市自強南路177號",
    "city": "新竹縣",
    "dist": "竹北市",
    "tel": "(03)6682057",
    "lat": 24.814261,
    "lon": 121.024272
  },
  {
    "type": "藥局",
    "name": "竹北啄木鳥藥局",
    "address": "新竹縣竹北市博愛街183號",
    "city": "新竹縣",
    "dist": "竹北市",
    "tel": "(03)5539420",
    "lat": 24.8322168,
    "lon": 121.0054021
  },
  {
    "type": "藥局",
    "name": "育禾藥局",
    "address": "新竹縣竹北市莊敬南路186號",
    "city": "新竹縣",
    "dist": "竹北市",
    "tel": "(03)6683255",
    "lat": 24.8155412,
    "lon": 121.0193687
  },
  {
    "type": "藥局",
    "name": "仁信藥局",
    "address": "新竹縣竹北市嘉豐南路二段51號",
    "city": "新竹縣",
    "dist": "竹北市",
    "tel": "(03)6676218",
    "lat": 24.8071363,
    "lon": 121.0320247
  },
  {
    "type": "藥局",
    "name": "立順藥局",
    "address": "新竹縣竹北市復興一街76號1樓",
    "city": "新竹縣",
    "dist": "竹北市",
    "tel": "(03)6685690",
    "lat": 24.8161841,
    "lon": 121.0299099
  },
  {
    "type": "藥局",
    "name": "上紘藥局",
    "address": "新竹縣竹北市嘉豐二街一段50號1樓",
    "city": "新竹縣",
    "dist": "竹北市",
    "tel": "(03)6675935",
    "lat": 24.8165104,
    "lon": 121.0295417
  },
  {
    "type": "藥局",
    "name": "源川藥局",
    "address": "新竹縣竹北市文興路二段9號",
    "city": "新竹縣",
    "dist": "竹北市",
    "tel": "(03)6576165",
    "lat": 24.8084474,
    "lon": 121.0331208
  },
  {
    "type": "藥局",
    "name": "竹北光明藥局",
    "address": "新竹縣竹北市光明一路137號",
    "city": "新竹縣",
    "dist": "竹北市",
    "tel": "(03)5584545",
    "lat": 24.8301228,
    "lon": 121.0157479
  },
  {
    "type": "藥局",
    "name": "中華藥局",
    "address": "新竹縣竹北市中華路226號1、2樓",
    "city": "新竹縣",
    "dist": "竹北市",
    "tel": "(03)5513031",
    "lat": 24.8312059,
    "lon": 121.002615
  },
  {
    "type": "藥局",
    "name": "金慧藥局",
    "address": "新竹縣竹北市科大二街185號一樓",
    "city": "新竹縣",
    "dist": "竹北市",
    "tel": "(03)5586687",
    "lat": 24.8195,
    "lon": 121.0111829
  },
  {
    "type": "藥局",
    "name": "佑東藥師藥局",
    "address": "新竹縣竹北市縣政三街27號",
    "city": "新竹縣",
    "dist": "竹北市",
    "tel": "(03)5588092",
    "lat": 24.8238772,
    "lon": 121.013199
  },
  {
    "type": "藥局",
    "name": "艾美藥局",
    "address": "新竹縣竹北市中正西路82號1樓",
    "city": "新竹縣",
    "dist": "竹北市",
    "tel": "(03)5557760",
    "lat": 24.8429807,
    "lon": 120.9670679
  },
  {
    "type": "藥局",
    "name": "成功藥局",
    "address": "新竹縣竹北市成功三路69號",
    "city": "新竹縣",
    "dist": "竹北市",
    "tel": "(03)5509117",
    "lat": 24.8194512,
    "lon": 121.0238778
  },
  {
    "type": "藥局",
    "name": "佳美中西藥局",
    "address": "新竹縣竹北市福興東路二段146號",
    "city": "新竹縣",
    "dist": "竹北市",
    "tel": "(03)5500213",
    "lat": 24.8143512,
    "lon": 121.0283708
  },
  {
    "type": "藥局",
    "name": "高名藥局",
    "address": "新竹縣竹北市成功八路68號1樓",
    "city": "新竹縣",
    "dist": "竹北市",
    "tel": "(03)6577088",
    "lat": 24.8184382,
    "lon": 121.0164173
  },
  {
    "type": "藥局",
    "name": "幼幼健保藥局",
    "address": "新竹縣竹北市中興里嘉興路202號1樓",
    "city": "新竹縣",
    "dist": "竹北市",
    "tel": "(03)5507762",
    "lat": 24.8172677,
    "lon": 121.0279082
  },
  {
    "type": "藥局",
    "name": "仁品藥局",
    "address": "新竹縣竹北市福興東路二段126號",
    "city": "新竹縣",
    "dist": "竹北市",
    "tel": "(03)6579718",
    "lat": 24.8146705,
    "lon": 121.0280612
  },
  {
    "type": "藥局",
    "name": "文興藥局",
    "address": "新竹縣竹北市文興路一段318號1樓",
    "city": "新竹縣",
    "dist": "竹北市",
    "tel": "(03)6578772",
    "lat": 24.8093212,
    "lon": 121.0307111
  },
  {
    "type": "藥局",
    "name": "立康藥局",
    "address": "新竹縣竹北市華興街220號",
    "city": "新竹縣",
    "dist": "竹北市",
    "tel": "(03)5527730",
    "lat": 24.8386992,
    "lon": 121.0009658
  },
  {
    "type": "藥局",
    "name": "佑全竹北中正藥局",
    "address": "新竹縣竹北市中正西路176、178號1樓",
    "city": "新竹縣",
    "dist": "竹北市",
    "tel": "(03)5556235",
    "lat": 24.8414463,
    "lon": 120.9997122
  },
  {
    "type": "藥局",
    "name": "方米藥局",
    "address": "新竹縣竹北市博愛街511號",
    "city": "新竹縣",
    "dist": "竹北市",
    "tel": "(03)5510015",
    "lat": 24.8394966,
    "lon": 121.0106685
  },
  {
    "type": "藥局",
    "name": "合康連鎖藥局竹北店",
    "address": "新竹縣竹北市博愛街335號",
    "city": "新竹縣",
    "dist": "竹北市",
    "tel": "(03)5552288",
    "lat": 24.8359147,
    "lon": 121.0080923
  },
  {
    "type": "藥局",
    "name": "美德藥局",
    "address": "新竹縣竹北市文興路一段328號",
    "city": "新竹縣",
    "dist": "竹北市",
    "tel": "(03)5500198",
    "lat": 24.8091071,
    "lon": 121.0307149
  },
  {
    "type": "藥局",
    "name": "金竹藥局",
    "address": "新竹縣竹北市勝利六街68號",
    "city": "新竹縣",
    "dist": "竹北市",
    "tel": "(03)6683215",
    "lat": 24.8249576,
    "lon": 121.0259777
  },
  {
    "type": "藥局",
    "name": "合康連鎖藥局竹北二店",
    "address": "新竹縣竹北市福興東路一段373號",
    "city": "新竹縣",
    "dist": "竹北市",
    "tel": "(03)6583777",
    "lat": 24.8173652,
    "lon": 121.0258996
  },
  {
    "type": "藥局",
    "name": "暖林藥局",
    "address": "新竹縣竹北市福興路661號1樓",
    "city": "新竹縣",
    "dist": "竹北市",
    "tel": "(03)5585321",
    "lat": 24.8207619,
    "lon": 121.0145168
  },
  {
    "type": "藥局",
    "name": "十興藥局",
    "address": "新竹縣竹北市莊敬五街75號",
    "city": "新竹縣",
    "dist": "竹北市",
    "tel": "(03)6684889",
    "lat": 24.8236436,
    "lon": 121.0267683
  },
  {
    "type": "藥局",
    "name": "正安西藥局",
    "address": "新竹縣湖口鄉信全街41號",
    "city": "新竹縣",
    "dist": "湖口鄉",
    "tel": "(035)991053",
    "lat": 24.8999574,
    "lon": 121.041118
  },
  {
    "type": "藥局",
    "name": "黃藥師中西藥局",
    "address": "新竹縣湖口鄉仁勢村民族街98號",
    "city": "新竹縣",
    "dist": "湖口鄉",
    "tel": "(03)5996388",
    "lat": 24.9027048,
    "lon": 121.0453925
  },
  {
    "type": "藥局",
    "name": "家康藥局",
    "address": "新竹縣湖口鄉中央路28號二樓",
    "city": "新竹縣",
    "dist": "湖口鄉",
    "tel": "(03)5903226",
    "lat": 24.8370806,
    "lon": 121.00436
  },
  {
    "type": "藥局",
    "name": "中心藥局",
    "address": "新竹縣湖口鄉中正路一段115號2樓",
    "city": "新竹縣",
    "dist": "湖口鄉",
    "tel": "(03)5904636",
    "lat": 24.9015769,
    "lon": 121.0468478
  },
  {
    "type": "藥局",
    "name": "聖康藥師藥局",
    "address": "新竹縣湖口鄉中正路一段183號",
    "city": "新竹縣",
    "dist": "湖口鄉",
    "tel": "(03)5995358",
    "lat": 24.9002971,
    "lon": 121.0472701
  },
  {
    "type": "藥局",
    "name": "如家藥師藥局",
    "address": "新竹縣湖口鄉工業區光復東路249號",
    "city": "新竹縣",
    "dist": "湖口鄉",
    "tel": "(03)5972606",
    "lat": 24.8691339,
    "lon": 121.0264181
  },
  {
    "type": "藥局",
    "name": "中興藥局",
    "address": "新竹縣湖口鄉中興村中興2巷18號",
    "city": "新竹縣",
    "dist": "湖口鄉",
    "tel": "(03)6960881",
    "lat": 24.8663192,
    "lon": 121.0301932
  },
  {
    "type": "藥局",
    "name": "湖口藥局",
    "address": "新竹縣湖口鄉民族路45號",
    "city": "新竹縣",
    "dist": "湖口鄉",
    "tel": "(03)5991842",
    "lat": 24.9015385,
    "lon": 121.0445332
  },
  {
    "type": "藥局",
    "name": "安健藥局",
    "address": "新竹縣湖口鄉中正路1段210號",
    "city": "新竹縣",
    "dist": "湖口鄉",
    "tel": "(03)5906685",
    "lat": 24.8985293,
    "lon": 121.0474415
  },
  {
    "type": "藥局",
    "name": "勝利大藥局",
    "address": "新竹縣湖口鄉勝利村漢陽路1號",
    "city": "新竹縣",
    "dist": "湖口鄉",
    "tel": "(03)5987520",
    "lat": 24.8632625,
    "lon": 121.0262164
  },
  {
    "type": "藥局",
    "name": "仁和藥局",
    "address": "新竹縣湖口鄉仁和路182號",
    "city": "新竹縣",
    "dist": "湖口鄉",
    "tel": "(03)5978541",
    "lat": 24.8714867,
    "lon": 121.016809
  },
  {
    "type": "藥局",
    "name": "育祥藥局",
    "address": "新竹縣湖口鄉安宅九街83號1樓",
    "city": "新竹縣",
    "dist": "湖口鄉",
    "tel": "(03)5977271",
    "lat": 24.866788,
    "lon": 121.024943
  },
  {
    "type": "藥局",
    "name": "湖山藥局",
    "address": "新竹縣湖口鄉中山路二段127號",
    "city": "新竹縣",
    "dist": "湖口鄉",
    "tel": "(03)5904999",
    "lat": 24.9034851,
    "lon": 121.0444841
  },
  {
    "type": "藥局",
    "name": "羽田藥局",
    "address": "新竹縣湖口鄉民族街60號1樓",
    "city": "新竹縣",
    "dist": "湖口鄉",
    "tel": "(03)5996972",
    "lat": 24.9015367,
    "lon": 121.0448682
  },
  {
    "type": "藥局",
    "name": "宏安藥局",
    "address": "新竹縣湖口鄉中山路二段110號一樓",
    "city": "新竹縣",
    "dist": "湖口鄉",
    "tel": "(03)5996335",
    "lat": 24.901441,
    "lon": 121.043725
  },
  {
    "type": "藥局",
    "name": "合康藥局湖口",
    "address": "新竹縣湖口鄉民族街126號",
    "city": "新竹縣",
    "dist": "湖口鄉",
    "tel": "(03)6992365",
    "lat": 24.903077,
    "lon": 121.045728
  },
  {
    "type": "藥局",
    "name": "金樓藥局",
    "address": "新竹縣新豐鄉建興路二段814號",
    "city": "新竹縣",
    "dist": "新豐鄉",
    "tel": "(035)571010",
    "lat": 24.9018271,
    "lon": 120.9872401
  },
  {
    "type": "藥局",
    "name": "建仁藥局",
    "address": "新竹縣新豐鄉建興路一段122號",
    "city": "新竹縣",
    "dist": "新豐鄉",
    "tel": "(03)5595850",
    "lat": 24.8728716,
    "lon": 120.9949508
  },
  {
    "type": "藥局",
    "name": "春安藥局",
    "address": "新竹縣新豐鄉重興村新庄路258號",
    "city": "新竹縣",
    "dist": "新豐鄉",
    "tel": "(03)5591875",
    "lat": 24.9033365,
    "lon": 120.9854909
  },
  {
    "type": "藥局",
    "name": "惠生藥局",
    "address": "新竹縣新豐鄉學府路113號",
    "city": "新竹縣",
    "dist": "新豐鄉",
    "tel": "(03)5597110",
    "lat": 24.8716769,
    "lon": 120.997034
  },
  {
    "type": "藥局",
    "name": "彰懷藥局",
    "address": "新竹縣新豐鄉新興路75號1樓",
    "city": "新竹縣",
    "dist": "新豐鄉",
    "tel": "(03)5572995",
    "lat": 24.8663616,
    "lon": 120.9925629
  },
  {
    "type": "藥局",
    "name": "立人藥局",
    "address": "新竹縣新豐鄉建興路一段57號",
    "city": "新竹縣",
    "dist": "新豐鄉",
    "tel": "(03)5578217",
    "lat": 24.8711897,
    "lon": 120.9952301
  },
  {
    "type": "藥局",
    "name": "第一調劑藥局",
    "address": "新竹縣新豐鄉建興路一段154號",
    "city": "新竹縣",
    "dist": "新豐鄉",
    "tel": "(03)5575001",
    "lat": 24.8743441,
    "lon": 120.9946653
  },
  {
    "type": "藥局",
    "name": "新揚藥局",
    "address": "新竹縣新豐鄉新興路243號",
    "city": "新竹縣",
    "dist": "新豐鄉",
    "tel": "(03)5574342",
    "lat": 24.8703126,
    "lon": 120.9966118
  },
  {
    "type": "藥局",
    "name": "昌昌藥局",
    "address": "新竹縣新豐鄉新市路193號",
    "city": "新竹縣",
    "dist": "新豐鄉",
    "tel": "(03)5598077",
    "lat": 24.9046641,
    "lon": 120.9845409
  },
  {
    "type": "藥局",
    "name": "泰安藥局",
    "address": "新竹縣新豐鄉泰安街9號1樓",
    "city": "新竹縣",
    "dist": "新豐鄉",
    "tel": "(03)5577050",
    "lat": 24.8689543,
    "lon": 120.9944061
  },
  {
    "type": "藥局",
    "name": "仁川藥局",
    "address": "新竹縣新豐鄉建興路二段747號",
    "city": "新竹縣",
    "dist": "新豐鄉",
    "tel": "(03)5599838",
    "lat": 24.8994452,
    "lon": 120.9869553
  },
  {
    "type": "藥局",
    "name": "新豐藥局",
    "address": "新竹縣新豐鄉中興路208、210號",
    "city": "新竹縣",
    "dist": "新豐鄉",
    "tel": "(03)5575005",
    "lat": 24.8757411,
    "lon": 120.9948342
  },
  {
    "type": "藥局",
    "name": "立果藥局",
    "address": "新竹縣新豐鄉尚仁街136號",
    "city": "新竹縣",
    "dist": "新豐鄉",
    "tel": "(03)5571766",
    "lat": 24.8695088,
    "lon": 120.9926428
  },
  {
    "type": "藥局",
    "name": "新華方西藥局",
    "address": "新竹縣芎林鄉文山路515號",
    "city": "新竹縣",
    "dist": "芎林鄉",
    "tel": "(03)5926352",
    "lat": 24.7769443,
    "lon": 121.0778956
  },
  {
    "type": "藥局",
    "name": "暘光藥局",
    "address": "新竹縣芎林鄉文山路385號",
    "city": "新竹縣",
    "dist": "芎林鄉",
    "tel": "(03)5121001",
    "lat": 24.7753509,
    "lon": 121.0802139
  },
  {
    "type": "藥局",
    "name": "大銨藥局",
    "address": "新竹縣芎林鄉石潭村竹林路72之1號",
    "city": "新竹縣",
    "dist": "芎林鄉",
    "tel": "(03)5928018",
    "lat": 24.750711,
    "lon": 121.098041
  },
  {
    "type": "藥局",
    "name": "寶唄藥局",
    "address": "新竹縣寶山鄉雙溪村雙豐路16號",
    "city": "新竹縣",
    "dist": "寶山鄉",
    "tel": "(03)5205028",
    "lat": 24.7655054,
    "lon": 120.9901442
  },
  {
    "type": "藥局",
    "name": "埔元藥局",
    "address": "新竹縣北埔鄉中山路114號",
    "city": "新竹縣",
    "dist": "北埔鄉",
    "tel": "(03)5802568",
    "lat": 24.7027301,
    "lon": 121.0542706
  }
]
